{"type":"FeatureCollection","features":[{"type":"Feature","properties":{"name":"Fiveways Co-op","brand":"Co-op","colour":"#00b1a9","street":"","city":"","postcode":"","website":"","area_m2":2915,"osm_id":32794062,"osm_type":"way","type":"supermarket"},"geometry":{"type":"Point","coordinates":[0.844684,51.878516]}},{"type":"Feature","properties":{"name":"The Co-operative Food","brand":"Co-op","colour":"#00b1a9","street":"Kempton Avenue","city":"Hereford","postcode":"HR4 9LT","website":"https://www.coop.co.uk/store-finder/HR4-9LT/grandstand-road","area_m2":2678,"osm_id":34115162,"osm_type":"way","type":"supermarket"},"geometry":{"type":"Point","coordinates":[-2.743186,52.073889]}},{"type":"Feature","properties":{"name":"Co-op Food","brand":"Co-op","colour":"#00b1a9","street":"Langborne Road","city":"Whitby","postcode":"YO21 1DH","website":"https://www.coop.co.uk/store-finder/YO21-1YW/langborne-road","area_m2":3110,"osm_id":35102733,"osm_type":"way","type":"supermarket"},"geometry":{"type":"Point","coordinates":[-0.613961,54.484249]}},{"type":"Feature","properties":{"name":"The Co-operative Food","brand":"Co-op","colour":"#00b1a9","street":"The Ridgeway","city":"","postcode":"PL7 2AW","website":"https://www.coop.co.uk/store-finder/PL7-2AW/the-ridgeway","area_m2":2597,"osm_id":40189112,"osm_type":"way","type":"supermarket"},"geometry":{"type":"Point","coordinates":[-4.053855,50.387859]}},{"type":"Feature","properties":{"name":"Co-op Food","brand":"Co-op","colour":"#00b1a9","street":"Bridge Street","city":"Lampeter","postcode":"SA48 7AF","website":"https://www.coop.co.uk/store-finder/SA48-7AF/lower-bridge-street","area_m2":2996,"osm_id":55127941,"osm_type":"way","type":"supermarket"},"geometry":{"type":"Point","coordinates":[-4.074129,52.109883]}},{"type":"Feature","properties":{"name":"Co-op Food","brand":"Co-op","colour":"#00b1a9","street":"","city":"","postcode":"","website":"","area_m2":3106,"osm_id":55785284,"osm_type":"way","type":"supermarket"},"geometry":{"type":"Point","coordinates":[-2.268938,52.398361]}},{"type":"Feature","properties":{"name":"The Co-operative Food","brand":"Co-op","colour":"#00b1a9","street":"Ryknild Street","city":"Lichfield","postcode":"WS14 9XU","website":"https://stores.centralengland.coop/staffordshire/lichfield/1-boley-park-centre","area_m2":3764,"osm_id":58709623,"osm_type":"way","type":"supermarket"},"geometry":{"type":"Point","coordinates":[-1.806064,52.680088]}},{"type":"Feature","properties":{"name":"Co-op Food","brand":"Co-op","colour":"#00b1a9","street":"","city":"","postcode":"","website":"https://www.coop.co.uk/store-finder/G83-8BW/carrochan-road","area_m2":2613,"osm_id":60706942,"osm_type":"way","type":"supermarket"},"geometry":{"type":"Point","coordinates":[-4.576611,56.003501]}},{"type":"Feature","properties":{"name":"Co-op Food","brand":"Co-op","colour":"#00b1a9","street":"Anglesea Street","city":"Ryde","postcode":"PO33 2SX","website":"https://www.coop.co.uk/store-finder/PO33-2SX/4-anglesea-street","area_m2":2827,"osm_id":61046238,"osm_type":"way","type":"supermarket"},"geometry":{"type":"Point","coordinates":[-1.162194,50.728747]}},{"type":"Feature","properties":{"name":"The Co-operative Food","brand":"Co-op","colour":"#00b1a9","street":"Derby Road","city":"Ripley","postcode":"DE5 3EA","website":"https://stores.centralengland.coop/derbyshire/ripley/1-derby-road","area_m2":2760,"osm_id":64935273,"osm_type":"way","type":"supermarket"},"geometry":{"type":"Point","coordinates":[-1.406107,53.048918]}},{"type":"Feature","properties":{"name":"Co-op Steòrnabhaigh","brand":"Co-op","colour":"#00b1a9","street":"Macaulay Road","city":"Stornoway","postcode":"HS1 2HU","website":"https://www.coop.co.uk/store-finder/HS1-2HU/8-macaulay-road","area_m2":3665,"osm_id":78539849,"osm_type":"way","type":"supermarket"},"geometry":{"type":"Point","coordinates":[-6.383707,58.216143]}},{"type":"Feature","properties":{"name":"The Co-operative Food","brand":"Co-op","colour":"#00b1a9","street":"Burley Road","city":"Oakham","postcode":"LE15 7AA","website":"https://stores.centralengland.coop/rutland/oakham/burley-road","area_m2":3961,"osm_id":87198962,"osm_type":"way","type":"supermarket"},"geometry":{"type":"Point","coordinates":[-0.71541,52.679427]}},{"type":"Feature","properties":{"name":"The Co-operative Food","brand":"Co-op","colour":"#00b1a9","street":"","city":"","postcode":"","website":"https://stores.centralengland.coop/west-midlands/birmingham/80-high-street","area_m2":3870,"osm_id":102868821,"osm_type":"way","type":"supermarket"},"geometry":{"type":"Point","coordinates":[-1.836958,52.525118]}},{"type":"Feature","properties":{"name":"Co-op Food","brand":"Co-op","colour":"#00b1a9","street":"Telford Street","city":"Inverness","postcode":"IV3 5LS","website":"https://www.coop.co.uk/store-finder/IV3-5LS/74-telford-street","area_m2":3212,"osm_id":114199063,"osm_type":"way","type":"supermarket"},"geometry":{"type":"Point","coordinates":[-4.244646,57.482955]}},{"type":"Feature","properties":{"name":"Churchstoke Shopping Centre (Harry Tuffins)","brand":"Co-op","colour":"#00b1a9","street":"","city":"Churchstoke","postcode":"SY15 6AR","website":"","area_m2":4129,"osm_id":156845667,"osm_type":"way","type":"supermarket"},"geometry":{"type":"Point","coordinates":[-3.063794,52.537538]}},{"type":"Feature","properties":{"name":"Co-op Food","brand":"Co-op","colour":"#00b1a9","street":"High Street","city":"Swindon","postcode":"SN1 3EG","website":"","area_m2":2683,"osm_id":167862437,"osm_type":"way","type":"supermarket"},"geometry":{"type":"Point","coordinates":[-1.774044,51.551111]}},{"type":"Feature","properties":{"name":"The Co-operative Food","brand":"Co-op","colour":"#00b1a9","street":"High Street","city":"Heathfield","postcode":"TN21 8JD","website":"https://www.coop.co.uk/store-finder/TN21-8JD/110-high-street","area_m2":3014,"osm_id":187870731,"osm_type":"way","type":"supermarket"},"geometry":{"type":"Point","coordinates":[0.247,50.970653]}},{"type":"Feature","properties":{"name":"Co-op","brand":"Co-op","colour":"#00b1a9","street":"","city":"Wickford","postcode":"SS12 9AJ","website":"","area_m2":3397,"osm_id":217926678,"osm_type":"way","type":"supermarket"},"geometry":{"type":"Point","coordinates":[0.522269,51.611653]}},{"type":"Feature","properties":{"name":"Co-op Food","brand":"Co-op","colour":"#00b1a9","street":"The Bullring, St Johns","city":"Worcester","postcode":"WR2 5AH","website":"","area_m2":2672,"osm_id":267326098,"osm_type":"way","type":"supermarket"},"geometry":{"type":"Point","coordinates":[-2.233793,52.188829]}},{"type":"Feature","properties":{"name":"The Co-operative Food","brand":"Co-op","colour":"#00b1a9","street":"Dog and Gun Lane","city":"Whetstone","postcode":"LE8 6LJ","website":"https://stores.centralengland.coop/leicestershire/leicester/the-end-of-dog-and-gun-lane","area_m2":2700,"osm_id":282736313,"osm_type":"way","type":"supermarket"},"geometry":{"type":"Point","coordinates":[-1.172098,52.559131]}},{"type":"Feature","properties":{"name":"The Co-operative Food","brand":"Co-op","colour":"#00b1a9","street":"Ashburnham Way","city":"Norwich","postcode":"NR33 9EJ","website":"https://stores.centralengland.coop/suffolk/lowestoft/ashburnham-way","area_m2":2528,"osm_id":316707280,"osm_type":"way","type":"supermarket"},"geometry":{"type":"Point","coordinates":[1.704076,52.457149]}},{"type":"Feature","properties":{"name":"Co-op Food","brand":"Co-op","colour":"#00b1a9","street":"Shaftesbury Road","city":"Bath","postcode":"BA2 3LH","website":"https://www.coop.co.uk/store-finder/BA2-3LH/shaftesbury-road","area_m2":2557,"osm_id":440528495,"osm_type":"way","type":"supermarket"},"geometry":{"type":"Point","coordinates":[-2.377736,51.37729]}},{"type":"Feature","properties":{"name":"The Co-operative Food","brand":"Co-op","colour":"#00b1a9","street":"New Street","city":"Ledbury","postcode":"HR8 2EZ","website":"https://www.coop.co.uk/store-finder/HR8-2EZ/new-street","area_m2":5714,"osm_id":701085859,"osm_type":"way","type":"supermarket"},"geometry":{"type":"Point","coordinates":[-2.425039,52.034937]}},{"type":"Feature","properties":{"name":"Co-op Food","brand":"Co-op","colour":"#00b1a9","street":"Woodpark Road","city":"Portree","postcode":"IV51 9HQ","website":"https://www.coop.co.uk/store-finder/IV51-9HQ/woodpark-road","area_m2":9413,"osm_id":1182272457,"osm_type":"way","type":"supermarket"},"geometry":{"type":"Point","coordinates":[-6.208973,57.417481]}}]}