{"type":"FeatureCollection","features":[{"type":"Feature","properties":{"name":"Ashford International","operator":"Eurostar","osm_id":9780197,"type":"eurostar_station"},"geometry":{"type":"Point","coordinates":[0.875163,51.14334]}},{"type":"Feature","properties":{"name":"Lille Europe","operator":"Eurostar","osm_id":17401813,"type":"eurostar_station"},"geometry":{"type":"Point","coordinates":[3.075302,50.639313]}},{"type":"Feature","properties":{"name":"Lyon Part-Dieu","operator":"SNCF Réseau","osm_id":20842381,"type":"eurostar_station"},"geometry":{"type":"Point","coordinates":[4.860119,45.760545]}},{"type":"Feature","properties":{"name":"Avignon TGV","operator":"SNCF Gares & Connexions","osm_id":26747141,"type":"eurostar_station"},"geometry":{"type":"Point","coordinates":[4.786023,43.921706]}},{"type":"Feature","properties":{"name":"Aachen Hauptbahnhof","operator":"Eurostar","osm_id":215971485,"type":"eurostar_station"},"geometry":{"type":"Point","coordinates":[6.092077,50.767617]}},{"type":"Feature","properties":{"name":"Aéroport Charles de Gaulle 2 TGV","operator":"SNCF Gares & Connexions","osm_id":225119209,"type":"eurostar_station"},"geometry":{"type":"Point","coordinates":[2.571229,49.003991]}},{"type":"Feature","properties":{"name":"Essen Hauptbahnhof","operator":"Eurostar","osm_id":449579026,"type":"eurostar_station"},"geometry":{"type":"Point","coordinates":[7.013591,51.4517]}},{"type":"Feature","properties":{"name":"Duisburg Hauptbahnhof","operator":"DB InfraGO AG","osm_id":449594533,"type":"eurostar_station"},"geometry":{"type":"Point","coordinates":[6.775713,51.429463]}},{"type":"Feature","properties":{"name":"Düsseldorf Hauptbahnhof","operator":"DB Station&Service AG","osm_id":449629919,"type":"eurostar_station"},"geometry":{"type":"Point","coordinates":[6.794895,51.21961]}},{"type":"Feature","properties":{"name":"Dortmund Hbf","operator":"Eurostar","osm_id":580755052,"type":"eurostar_station"},"geometry":{"type":"Point","coordinates":[7.459266,51.517829]}},{"type":"Feature","properties":{"name":"Rotterdam Centraal","operator":"Eurostar","osm_id":1053173589,"type":"eurostar_station"},"geometry":{"type":"Point","coordinates":[4.468719,51.925394]}},{"type":"Feature","properties":{"name":"Liège-Guillemins","operator":"Eurostar","osm_id":1235738055,"type":"eurostar_station"},"geometry":{"type":"Point","coordinates":[5.566914,50.624543]}},{"type":"Feature","properties":{"name":"Paris Gare du Nord - Voie 8","operator":"Eurostar","osm_id":1279432053,"type":"eurostar_station"},"geometry":{"type":"Point","coordinates":[2.354962,48.880628]}},{"type":"Feature","properties":{"name":"Köln Hauptbahnhof","operator":"DB InfraGO AG","osm_id":1629836010,"type":"eurostar_station"},"geometry":{"type":"Point","coordinates":[6.959046,50.942768]}},{"type":"Feature","properties":{"name":"Marne-la-Vallée - Chessy","operator":"SNCF Gares & Connexions","osm_id":2344182869,"type":"eurostar_station"},"geometry":{"type":"Point","coordinates":[2.782637,48.870288]}},{"type":"Feature","properties":{"name":"Marseille-Saint-Charles","operator":"Eurostar","osm_id":2510486551,"type":"eurostar_station"},"geometry":{"type":"Point","coordinates":[5.380711,43.302813]}},{"type":"Feature","properties":{"name":"London St Pancras","operator":"Eurostar","osm_id":3101677941,"type":"eurostar_station"},"geometry":{"type":"Point","coordinates":[-0.125419,51.530867]}},{"type":"Feature","properties":{"name":"Antwerpen-Centraal","operator":"Eurostar","osm_id":3558402318,"type":"eurostar_station"},"geometry":{"type":"Point","coordinates":[4.421114,51.216343]}},{"type":"Feature","properties":{"name":"Bruxelles-Midi - Brussel-Zuid","operator":"Eurostar","osm_id":4211136007,"type":"eurostar_station"},"geometry":{"type":"Point","coordinates":[4.334664,50.836025]}},{"type":"Feature","properties":{"name":"Amsterdam Centraal","operator":"Eurostar","osm_id":4572949455,"type":"eurostar_station"},"geometry":{"type":"Point","coordinates":[4.89978,52.379701]}},{"type":"Feature","properties":{"name":"Schiphol Airport","operator":"Eurostar","osm_id":4633328544,"type":"eurostar_station"},"geometry":{"type":"Point","coordinates":[4.762593,52.309449]}},{"type":"Feature","properties":{"name":"Ebbsfleet International","operator":"Eurostar","osm_id":7843817479,"type":"eurostar_station"},"geometry":{"type":"Point","coordinates":[0.320718,51.443012]}},{"type":"Feature","properties":{"name":"Voies 3 & 4","operator":"Eurostar","osm_id":112596536,"type":"eurostar_station"},"geometry":{"type":"Point","coordinates":[2.355739,48.882877]}},{"type":"Feature","properties":{"name":"Spoor 1/2","operator":"Eurostar","osm_id":186662580,"type":"eurostar_station"},"geometry":{"type":"Point","coordinates":[4.760767,52.308192]}},{"type":"Feature","properties":{"name":"8b","operator":"Eurostar","osm_id":589499091,"type":"eurostar_station"},"geometry":{"type":"Point","coordinates":[4.901784,52.378463]}}]}