{"type": "FeatureCollection", "features": [{"type": "Feature", "properties": {"name": "Alcohols Ltd", "operator": "Unknown Operator", "type": "Chemical"}, "geometry": {"type": "Point", "coordinates": [-0.0514823, 51.604335]}}, {"type": "Feature", "properties": {"name": "Greatham Tank Farm", "operator": "Unknown Operator", "type": "Oil"}, "geometry": {"type": "Point", "coordinates": [-1.2126219, 54.6347697]}}, {"type": "Feature", "properties": {"name": "Dalmeny Tank Farm", "operator": "INEOS", "type": "Oil"}, "geometry": {"type": "Point", "coordinates": [-3.3687932, 55.9764811]}}, {"type": "Feature", "properties": {"name": "Fawley Oil Refinery", "operator": "ExxonMobil", "type": "Oil"}, "geometry": {"type": "Point", "coordinates": [-1.3610035, 50.8352362]}}, {"type": "Feature", "properties": {"name": "Pembroke Oil Refinery", "operator": "Valero Energy Corporation", "type": "Oil"}, "geometry": {"type": "Point", "coordinates": [-5.026966, 51.6858166]}}, {"type": "Feature", "properties": {"name": "Havant Exploration Site", "operator": "Unknown Operator", "type": "Oil"}, "geometry": {"type": "Point", "coordinates": [-1.0151788, 50.8682184]}}, {"type": "Feature", "properties": {"name": "Esso West London Oil Terminal", "operator": "Unknown Operator", "type": "Oil"}, "geometry": {"type": "Point", "coordinates": [-0.4593845, 51.4526197]}}, {"type": "Feature", "properties": {"name": "Saffron Walden AGI", "operator": "Exolum", "type": "Oil"}, "geometry": {"type": "Point", "coordinates": [0.2650154, 52.0244712]}}, {"type": "Feature", "properties": {"name": "Veranova - Blandfield Works", "operator": "Unknown Operator", "type": "Chemical"}, "geometry": {"type": "Point", "coordinates": [-3.2382358, 55.9398207]}}, {"type": "Feature", "properties": {"name": "Padeswood Cement Works", "operator": "Unknown Operator", "type": "Cement"}, "geometry": {"type": "Point", "coordinates": [-3.060509, 53.1532751]}}, {"type": "Feature", "properties": {"name": "Rohm and Haas", "operator": "Unknown Operator", "type": "Chemical"}, "geometry": {"type": "Point", "coordinates": [-1.6632246, 53.699216]}}, {"type": "Feature", "properties": {"name": "Postlip Mills", "operator": "Hollingsworth & Vose", "type": "Paper Mill"}, "geometry": {"type": "Point", "coordinates": [-1.9872938, 51.9424717]}}, {"type": "Feature", "properties": {"name": "Buncefield Oil Terminal", "operator": "Unknown Operator", "type": "Oil"}, "geometry": {"type": "Point", "coordinates": [-0.4266239, 51.7645217]}}, {"type": "Feature", "properties": {"name": "Iggesund Paperboard Workington Mill", "operator": "Unknown Operator", "type": "Paper Mill"}, "geometry": {"type": "Point", "coordinates": [-3.5475411, 54.6641145]}}, {"type": "Feature", "properties": {"name": "Devon Valley Mill", "operator": "Purico", "type": "Paper Mill"}, "geometry": {"type": "Point", "coordinates": [-3.4289628, 50.8133261]}}, {"type": "Feature", "properties": {"name": "Swantex", "operator": "Unknown Operator", "type": "Paper Mill"}, "geometry": {"type": "Point", "coordinates": [0.1756574, 51.393419]}}, {"type": "Feature", "properties": {"name": "Aldermaston Petroleum Storage Depot", "operator": "Exolum", "type": "Oil"}, "geometry": {"type": "Point", "coordinates": [-1.1140961, 51.3947699]}}, {"type": "Feature", "properties": {"name": "Oikos harbour facility", "operator": "Oikos Storage", "type": "Oil"}, "geometry": {"type": "Point", "coordinates": [0.560267, 51.512102]}}, {"type": "Feature", "properties": {"name": "Kingsbury Oil Terminal", "operator": "Unknown Operator", "type": "Oil"}, "geometry": {"type": "Point", "coordinates": [-1.6721942, 52.5739272]}}, {"type": "Feature", "properties": {"name": "Kingsbury Oil Terminal", "operator": "Unknown Operator", "type": "Oil"}, "geometry": {"type": "Point", "coordinates": [-1.6736471, 52.5670447]}}, {"type": "Feature", "properties": {"name": "Tetney Oil Terminal", "operator": "Unknown Operator", "type": "Oil"}, "geometry": {"type": "Point", "coordinates": [0.0009993, 53.4997335]}}, {"type": "Feature", "properties": {"name": "Flotta Terminal (Repsol Sinopek)", "operator": "Unknown Operator", "type": "Oil"}, "geometry": {"type": "Point", "coordinates": [-3.1176482, 58.8373913]}}, {"type": "Feature", "properties": {"name": "CLH-PS Thetford", "operator": "CLH", "type": "Oil"}, "geometry": {"type": "Point", "coordinates": [0.7400723, 52.4227035]}}, {"type": "Feature", "properties": {"name": "CLH-PS Aldermaston", "operator": "Unknown Operator", "type": "Oil"}, "geometry": {"type": "Point", "coordinates": [-1.1145829, 51.3902843]}}, {"type": "Feature", "properties": {"name": "CLH-PS Aldermaston", "operator": "Unknown Operator", "type": "Oil"}, "geometry": {"type": "Point", "coordinates": [-1.1167312, 51.3846671]}}, {"type": "Feature", "properties": {"name": "Blisworth pumping station", "operator": "Unknown Operator", "type": "Oil"}, "geometry": {"type": "Point", "coordinates": [-0.947912, 52.1919398]}}, {"type": "Feature", "properties": {"name": "Wytch Farm Oil Field", "operator": "Unknown Operator", "type": "Oil"}, "geometry": {"type": "Point", "coordinates": [-2.0377184, 50.6661355]}}, {"type": "Feature", "properties": {"name": "Wytch Farm Oil Field", "operator": "Unknown Operator", "type": "Oil"}, "geometry": {"type": "Point", "coordinates": [-2.0388092, 50.663341]}}, {"type": "Feature", "properties": {"name": "GPSS Hethersett", "operator": "Unknown Operator", "type": "Oil"}, "geometry": {"type": "Point", "coordinates": [1.2057332, 52.5911015]}}, {"type": "Feature", "properties": {"name": "Coney Weston", "operator": "CLH-PS", "type": "Oil"}, "geometry": {"type": "Point", "coordinates": [0.8605117, 52.3647951]}}, {"type": "Feature", "properties": {"name": "GPSS Sawtry", "operator": "Unknown Operator", "type": "Oil"}, "geometry": {"type": "Point", "coordinates": [-0.2598281, 52.4239494]}}, {"type": "Feature", "properties": {"name": "Epping Booster Station", "operator": "British Pipeline Association", "type": "Oil"}, "geometry": {"type": "Point", "coordinates": [0.019438, 51.7023783]}}, {"type": "Feature", "properties": {"name": "BP Oil Terminal", "operator": "Unknown Operator", "type": "Oil"}, "geometry": {"type": "Point", "coordinates": [0.6786854, 51.4398067]}}, {"type": "Feature", "properties": {"name": "Seisdon Pumping Station", "operator": "Unknown Operator", "type": "Oil"}, "geometry": {"type": "Point", "coordinates": [-2.231021, 52.5585061]}}, {"type": "Feature", "properties": {"name": "CLH-PS Heathfield", "operator": "Unknown Operator", "type": "Oil"}, "geometry": {"type": "Point", "coordinates": [-4.5863571, 55.4807708]}}, {"type": "Feature", "properties": {"name": "Sullom Voe Oil Terminal", "operator": "Unknown Operator", "type": "Oil"}, "geometry": {"type": "Point", "coordinates": [-1.2792768, 60.4646726]}}, {"type": "Feature", "properties": {"name": "Exolum Walton", "operator": "Unknown Operator", "type": "Oil"}, "geometry": {"type": "Point", "coordinates": [-0.407605, 51.4030827]}}, {"type": "Feature", "properties": {"name": "Veranova - West Site", "operator": "Unknown Operator", "type": "Chemical"}, "geometry": {"type": "Point", "coordinates": [-3.2393704, 55.9391426]}}, {"type": "Feature", "properties": {"name": "Simon Storage", "operator": "Unknown Operator", "type": "Oil"}, "geometry": {"type": "Point", "coordinates": [-1.1626497, 54.6167285]}}, {"type": "Feature", "properties": {"name": "ConocoPhillips Oil Refinery", "operator": "Unknown Operator", "type": "Oil"}, "geometry": {"type": "Point", "coordinates": [-1.1773684, 54.618148]}}, {"type": "Feature", "properties": {"name": "ConocoPhillips Storage", "operator": "Unknown Operator", "type": "Oil"}, "geometry": {"type": "Point", "coordinates": [-1.163744, 54.620083]}}, {"type": "Feature", "properties": {"name": "Vopak Storage", "operator": "Unknown Operator", "type": "Oil"}, "geometry": {"type": "Point", "coordinates": [-1.1659648, 54.6089246]}}, {"type": "Feature", "properties": {"name": "CLH-PS Purton", "operator": "Unknown Operator", "type": "Oil"}, "geometry": {"type": "Point", "coordinates": [-1.8401331, 51.5873678]}}, {"type": "Feature", "properties": {"name": "Brenntag", "operator": "Unknown Operator", "type": "Chemical"}, "geometry": {"type": "Point", "coordinates": [0.7340276, 52.4233498]}}, {"type": "Feature", "properties": {"name": "Humbly Grove Oil Field", "operator": "Unknown Operator", "type": "Oil Field"}, "geometry": {"type": "Point", "coordinates": [-1.0105979, 51.1949724]}}, {"type": "Feature", "properties": {"name": "Humbly Grove Oil Field", "operator": "Unknown Operator", "type": "Oil Field"}, "geometry": {"type": "Point", "coordinates": [-1.0051191, 51.1988079]}}, {"type": "Feature", "properties": {"name": "Tranmere Oil Terminal", "operator": "Unknown Operator", "type": "Oil"}, "geometry": {"type": "Point", "coordinates": [-3.0046028, 53.3767083]}}, {"type": "Feature", "properties": {"name": "Unnamed Oil Facility", "operator": "Exolum", "type": "Oil"}, "geometry": {"type": "Point", "coordinates": [-2.9534841, 53.3142596]}}, {"type": "Feature", "properties": {"name": "Sabic Chemicals", "operator": "Unknown Operator", "type": "Oil"}, "geometry": {"type": "Point", "coordinates": [-1.1830725, 54.5988661]}}, {"type": "Feature", "properties": {"name": "CLH-PS Misterton", "operator": "Unknown Operator", "type": "Oil"}, "geometry": {"type": "Point", "coordinates": [-0.8392895, 53.4304783]}}, {"type": "Feature", "properties": {"name": "Unnamed Oil Facility", "operator": "CLH-PS", "type": "Oil"}, "geometry": {"type": "Point", "coordinates": [-0.7168923, 53.32426]}}, {"type": "Feature", "properties": {"name": "Killingholme Petroleum Storage Depot", "operator": "Exolum", "type": "Oil"}, "geometry": {"type": "Point", "coordinates": [-0.2195157, 53.6463098]}}, {"type": "Feature", "properties": {"name": "Coalbed Methane testdrill site (Airth 6-P/08/0758/FUL)", "operator": "Unknown Operator", "type": "Oil"}, "geometry": {"type": "Point", "coordinates": [-3.8023729, 56.0454179]}}, {"type": "Feature", "properties": {"name": "CoalBed Methane drill site (Airth 10-P/07/0576/FUL)", "operator": "Unknown Operator", "type": "Oil"}, "geometry": {"type": "Point", "coordinates": [-3.7883633, 56.0488759]}}, {"type": "Feature", "properties": {"name": "CoalBedMethane drill site (P/07/0258/FUL)", "operator": "Unknown Operator", "type": "Oil"}, "geometry": {"type": "Point", "coordinates": [-3.7823364, 56.0493321]}}, {"type": "Feature", "properties": {"name": "CoalBedMethane drill site (P/07/0103/FUL)", "operator": "Unknown Operator", "type": "Oil"}, "geometry": {"type": "Point", "coordinates": [-3.7642756, 56.0457441]}}, {"type": "Feature", "properties": {"name": "CoalBedMethane drill site (F/2004/0862)", "operator": "Unknown Operator", "type": "Oil"}, "geometry": {"type": "Point", "coordinates": [-3.7875667, 56.0537474]}}, {"type": "Feature", "properties": {"name": "Cruden Bay Booster Station", "operator": "INEOS FPS", "type": "Oil"}, "geometry": {"type": "Point", "coordinates": [-1.8896473, 57.3849292]}}, {"type": "Feature", "properties": {"name": "KLG Glass (Chilwell) Ltd", "operator": "Unknown Operator", "type": "Glass"}, "geometry": {"type": "Point", "coordinates": [-1.2077213, 52.9261331]}}, {"type": "Feature", "properties": {"name": "CLH-PS Stow Park", "operator": "Exolum", "type": "Oil"}, "geometry": {"type": "Point", "coordinates": [-0.7087319, 53.3111264]}}, {"type": "Feature", "properties": {"name": "Rawcliffe Petroleum Storage Depot", "operator": "Exolum", "type": "Oil"}, "geometry": {"type": "Point", "coordinates": [-0.94344, 53.6855618]}}, {"type": "Feature", "properties": {"name": "Longcliffe Calcium Carbonate", "operator": "Unknown Operator", "type": "Chemical"}, "geometry": {"type": "Point", "coordinates": [-1.6611692, 53.0980106]}}, {"type": "Feature", "properties": {"name": "Kimmeridge Bay oil well", "operator": "Unknown Operator", "type": "Oil"}, "geometry": {"type": "Point", "coordinates": [-2.135943, 50.6131361]}}, {"type": "Feature", "properties": {"name": "GPSS Blackmoor", "operator": "Unknown Operator", "type": "Oil"}, "geometry": {"type": "Point", "coordinates": [-1.583652, 53.5080277]}}, {"type": "Feature", "properties": {"name": "Oilfast", "operator": "Unknown Operator", "type": "Oil"}, "geometry": {"type": "Point", "coordinates": [-4.0088362, 55.8048295]}}, {"type": "Feature", "properties": {"name": "Unnamed Oil Facility", "operator": "Exolum", "type": "Oil"}, "geometry": {"type": "Point", "coordinates": [-0.8319007, 52.9159996]}}, {"type": "Feature", "properties": {"name": "Perry Oaks Fuel Farm", "operator": "Unknown Operator", "type": "Oil"}, "geometry": {"type": "Point", "coordinates": [-0.4719944, 51.4738061]}}, {"type": "Feature", "properties": {"name": "Texaco Oil Terminal", "operator": "Unknown Operator", "type": "Oil"}, "geometry": {"type": "Point", "coordinates": [-3.142426, 51.4655482]}}, {"type": "Feature", "properties": {"name": "Unnamed Oil Facility", "operator": "CLH-PS", "type": "Oil"}, "geometry": {"type": "Point", "coordinates": [-0.5241213, 53.1405565]}}, {"type": "Feature", "properties": {"name": "GPSS Backford South", "operator": "Unknown Operator", "type": "Oil"}, "geometry": {"type": "Point", "coordinates": [-2.881346, 53.2395837]}}, {"type": "Feature", "properties": {"name": "GPSS Backford South", "operator": "Unknown Operator", "type": "Oil"}, "geometry": {"type": "Point", "coordinates": [-2.8902085, 53.2372807]}}, {"type": "Feature", "properties": {"name": "Port Talbot Steelworks", "operator": "Unknown Operator", "type": "Steelmaking"}, "geometry": {"type": "Point", "coordinates": [-3.7762421, 51.5632884]}}, {"type": "Feature", "properties": {"name": "GPSS Dalston", "operator": "Unknown Operator", "type": "Oil"}, "geometry": {"type": "Point", "coordinates": [-2.9922904, 54.8447144]}}, {"type": "Feature", "properties": {"name": "Flax Bourton Petroleum Supply Depot", "operator": "Exolum", "type": "Oil"}, "geometry": {"type": "Point", "coordinates": [-2.7121806, 51.427305]}}, {"type": "Feature", "properties": {"name": "Redcliffe Bay Petroleum Storage Depot", "operator": "Exolum", "type": "Oil"}, "geometry": {"type": "Point", "coordinates": [-2.813394, 51.4744699]}}, {"type": "Feature", "properties": {"name": "CLH-PS Berwick Wood", "operator": "Exolum", "type": "Oil"}, "geometry": {"type": "Point", "coordinates": [-2.6285678, 51.5245592]}}, {"type": "Feature", "properties": {"name": "CLH-PS Berwick Wood", "operator": "Exolum", "type": "Oil"}, "geometry": {"type": "Point", "coordinates": [-2.6206802, 51.5267608]}}, {"type": "Feature", "properties": {"name": "CLH-PS Berwick Wood", "operator": "Exolum", "type": "Oil"}, "geometry": {"type": "Point", "coordinates": [-2.6375771, 51.5260232]}}, {"type": "Feature", "properties": {"name": "Overton Mill", "operator": "Portals Paper", "type": "Papermill"}, "geometry": {"type": "Point", "coordinates": [-1.2593006, 51.2558]}}, {"type": "Feature", "properties": {"name": "Unnamed Oil Facility", "operator": "INEOS FPS", "type": "Oil"}, "geometry": {"type": "Point", "coordinates": [-3.3194609, 56.4655719]}}, {"type": "Feature", "properties": {"name": "Exolum Walton", "operator": "Unknown Operator", "type": "Oil"}, "geometry": {"type": "Point", "coordinates": [-0.4146745, 51.3965887]}}, {"type": "Feature", "properties": {"name": "Aldermaston Petroleum Storage Depot", "operator": "Exolum", "type": "Oil"}, "geometry": {"type": "Point", "coordinates": [-1.1085184, 51.3888968]}}, {"type": "Feature", "properties": {"name": "GPSS Kelmarsh", "operator": "Unknown Operator", "type": "Oil"}, "geometry": {"type": "Point", "coordinates": [-0.9061714, 52.4190876]}}, {"type": "Feature", "properties": {"name": "Bramhall Oil Terminal", "operator": "Exolum", "type": "Oil"}, "geometry": {"type": "Point", "coordinates": [-2.1519777, 53.3547711]}}, {"type": "Feature", "properties": {"name": "Sandringham Road Fuel Farm", "operator": "Unknown Operator", "type": "Oil"}, "geometry": {"type": "Point", "coordinates": [-0.4769752, 51.4621001]}}, {"type": "Feature", "properties": {"name": "GPSS Forfar", "operator": "Unknown Operator", "type": "Oil"}, "geometry": {"type": "Point", "coordinates": [-2.8274309, 56.6575248]}}, {"type": "Feature", "properties": {"name": "Your nrg", "operator": "Unknown Operator", "type": "Oil"}, "geometry": {"type": "Point", "coordinates": [-1.5332449, 52.5778332]}}, {"type": "Feature", "properties": {"name": "Flosteel Limited", "operator": "Unknown Operator", "type": "Steelworks"}, "geometry": {"type": "Point", "coordinates": [-2.7597502, 56.6288898]}}, {"type": "Feature", "properties": {"name": "Brechin Booster Station", "operator": "INEOS FPS", "type": "Oil"}, "geometry": {"type": "Point", "coordinates": [-2.7526317, 56.7160508]}}, {"type": "Feature", "properties": {"name": "Adler & Allen", "operator": "Unknown Operator", "type": "Oil"}, "geometry": {"type": "Point", "coordinates": [-0.0229478, 51.6831933]}}, {"type": "Feature", "properties": {"name": "GPSS Stonesby", "operator": "Unknown Operator", "type": "Oil"}, "geometry": {"type": "Point", "coordinates": [-0.7931982, 52.817454]}}, {"type": "Feature", "properties": {"name": "CLH-PS\u00a0Lincomb\u00a0Hall", "operator": "Exolum", "type": "Oil"}, "geometry": {"type": "Point", "coordinates": [-2.267877, 52.3134867]}}, {"type": "Feature", "properties": {"name": "GPSS Upton", "operator": "Unknown Operator", "type": "Oil"}, "geometry": {"type": "Point", "coordinates": [-2.1975169, 52.0490838]}}, {"type": "Feature", "properties": {"name": "GPSS Turriff", "operator": "Unknown Operator", "type": "Oil"}, "geometry": {"type": "Point", "coordinates": [-2.454967, 57.5308402]}}, {"type": "Feature", "properties": {"name": "Sandy Petroleum Storage Depot", "operator": "Exolum", "type": "Oil"}, "geometry": {"type": "Point", "coordinates": [-0.247641, 52.1212704]}}, {"type": "Feature", "properties": {"name": "CLH-PS Hallen Petroleum Supply Depot", "operator": "Exolum", "type": "Oil"}, "geometry": {"type": "Point", "coordinates": [-2.6357159, 51.5154829]}}, {"type": "Feature", "properties": {"name": "Fuel Depot", "operator": "Certas (Butler Fuels)", "type": "Oil"}, "geometry": {"type": "Point", "coordinates": [-0.402714, 50.9999525]}}, {"type": "Feature", "properties": {"name": "Pumping Station", "operator": "CLH", "type": "Oil"}, "geometry": {"type": "Point", "coordinates": [-2.2616352, 52.3279433]}}, {"type": "Feature", "properties": {"name": "BPA Uttoxeter Junction", "operator": "British Pipeline Agency", "type": "Oil"}, "geometry": {"type": "Point", "coordinates": [-1.9471126, 52.7815557]}}, {"type": "Feature", "properties": {"name": "Oil States", "operator": "Unknown Operator", "type": "Oil"}, "geometry": {"type": "Point", "coordinates": [-3.6990292, 55.8679129]}}, {"type": "Feature", "properties": {"name": "Tradebe Scotoil", "operator": "Unknown Operator", "type": "Oil"}, "geometry": {"type": "Point", "coordinates": [-2.0837085, 57.1482939]}}, {"type": "Feature", "properties": {"name": "Halliburton St Clements Facility", "operator": "Halliburton", "type": "Oil"}, "geometry": {"type": "Point", "coordinates": [-2.0823829, 57.1461689]}}, {"type": "Feature", "properties": {"name": "Caledonian Paper Mill", "operator": "Unknown Operator", "type": "Paper Mill"}, "geometry": {"type": "Point", "coordinates": [-4.6415967, 55.5815104]}}, {"type": "Feature", "properties": {"name": "GPSS (CLH)", "operator": "Unknown Operator", "type": "Oil"}, "geometry": {"type": "Point", "coordinates": [0.9614932, 52.0946403]}}, {"type": "Feature", "properties": {"name": "Chelston GPSS", "operator": "Unknown Operator", "type": "Oil"}, "geometry": {"type": "Point", "coordinates": [-0.5221533, 52.3007298]}}, {"type": "Feature", "properties": {"name": "Unnamed Oil Facility", "operator": "Ineos FPS", "type": "Oil"}, "geometry": {"type": "Point", "coordinates": [-3.3633426, 55.9990274]}}, {"type": "Feature", "properties": {"name": "A H Allen Steel Stock Ltd", "operator": "Barret Steel Group", "type": "Steel Mill"}, "geometry": {"type": "Point", "coordinates": [-1.5857355, 52.7679859]}}, {"type": "Feature", "properties": {"name": "A H Allen Steel Stock Ltd", "operator": "Barret Steel Group", "type": "Steel Mill"}, "geometry": {"type": "Point", "coordinates": [-1.5851768, 52.7682449]}}, {"type": "Feature", "properties": {"name": "A H Allen Steel Stock Ltd", "operator": "Barret Steel Group", "type": "Steel Mill"}, "geometry": {"type": "Point", "coordinates": [-1.5859031, 52.7684776]}}, {"type": "Feature", "properties": {"name": "Padworth Oil Terminal", "operator": "Unknown Operator", "type": "Oil"}, "geometry": {"type": "Point", "coordinates": [-1.1293076, 51.4032819]}}, {"type": "Feature", "properties": {"name": "Valve Compound", "operator": "Unknown Operator", "type": "Oil"}, "geometry": {"type": "Point", "coordinates": [-1.0013759, 51.7053145]}}, {"type": "Feature", "properties": {"name": "Valve Compound", "operator": "Unknown Operator", "type": "Oil"}, "geometry": {"type": "Point", "coordinates": [-1.0738888, 51.4938186]}}, {"type": "Feature", "properties": {"name": "ASCO Waste Management", "operator": "Unknown Operator", "type": "Oil"}, "geometry": {"type": "Point", "coordinates": [-1.8101061, 57.4860206]}}, {"type": "Feature", "properties": {"name": "Navigator Terminals Thames", "operator": "Navigator Terminals", "type": "Oil"}, "geometry": {"type": "Point", "coordinates": [0.2674082, 51.4680311]}}, {"type": "Feature", "properties": {"name": "F J Emery Oils", "operator": "Unknown Operator", "type": "Oil"}, "geometry": {"type": "Point", "coordinates": [-3.7785141, 50.283142]}}, {"type": "Feature", "properties": {"name": "Onshore Oilfield Services Ltd - Farley's Wood", "operator": "Unknown Operator", "type": "Oil"}, "geometry": {"type": "Point", "coordinates": [-0.9448635, 53.240018]}}, {"type": "Feature", "properties": {"name": "Puma Milford Haven Terminal", "operator": "Unknown Operator", "type": "Oil"}, "geometry": {"type": "Point", "coordinates": [-5.0647831, 51.734626]}}, {"type": "Feature", "properties": {"name": "Encirc Elton Site", "operator": "Encirc", "type": "Glass"}, "geometry": {"type": "Point", "coordinates": [-2.8136493, 53.2802885]}}, {"type": "Feature", "properties": {"name": "Unnamed Oil Facility", "operator": "Island Gas (Singleton) Limited - iGas Energy", "type": "Oil"}, "geometry": {"type": "Point", "coordinates": [-0.7425774, 50.9315976]}}, {"type": "Feature", "properties": {"name": "GPSS", "operator": "Unknown Operator", "type": "Oil"}, "geometry": {"type": "Point", "coordinates": [-0.6201088, 52.7385348]}}, {"type": "Feature", "properties": {"name": "Dunlop Oil & Marine", "operator": "Unknown Operator", "type": "Oil"}, "geometry": {"type": "Point", "coordinates": [-0.112174, 53.5818655]}}, {"type": "Feature", "properties": {"name": "Horse Hill oilfield", "operator": "Unknown Operator", "type": "Oil"}, "geometry": {"type": "Point", "coordinates": [-0.2088779, 51.177964]}}, {"type": "Feature", "properties": {"name": "Northampton Fuel Terminal", "operator": "Unknown Operator", "type": "Oil"}, "geometry": {"type": "Point", "coordinates": [-0.9111322, 52.2337534]}}, {"type": "Feature", "properties": {"name": "Scottish Fuels", "operator": "Unknown Operator", "type": "Oil"}, "geometry": {"type": "Point", "coordinates": [-2.9570923, 58.9848579]}}, {"type": "Feature", "properties": {"name": "CLH", "operator": "Unknown Operator", "type": "Oil"}, "geometry": {"type": "Point", "coordinates": [-1.0077786, 51.3970719]}}, {"type": "Feature", "properties": {"name": "GED Environmental Services", "operator": "Unknown Operator", "type": "Oil"}, "geometry": {"type": "Point", "coordinates": [-2.9056534, 54.0381344]}}, {"type": "Feature", "properties": {"name": "Ineos FPS (Aberdeen)", "operator": "INEOS", "type": "Oil"}, "geometry": {"type": "Point", "coordinates": [-2.2633525, 57.0550755]}}, {"type": "Feature", "properties": {"name": "BPA Longford", "operator": "BPA", "type": "Oil"}, "geometry": {"type": "Point", "coordinates": [-0.4981528, 51.4791589]}}, {"type": "Feature", "properties": {"name": "Hill Farm Oilfield", "operator": "Star Energy Plc.", "type": "Oil"}, "geometry": {"type": "Point", "coordinates": [-1.3798709, 51.1253188]}}, {"type": "Feature", "properties": {"name": "Taylors Industrial Services", "operator": "Unknown Operator", "type": "Oil"}, "geometry": {"type": "Point", "coordinates": [-2.0765634, 57.1129392]}}, {"type": "Feature", "properties": {"name": "Plymouth Terminal", "operator": "Valero", "type": "Oil"}, "geometry": {"type": "Point", "coordinates": [-4.1153982, 50.3656718]}}, {"type": "Feature", "properties": {"name": "Point Law Oil Terminal", "operator": "Caledonian Oil", "type": "Oil Storage"}, "geometry": {"type": "Point", "coordinates": [-2.0782652, 57.1411142]}}, {"type": "Feature", "properties": {"name": "Goff Heating Oil & Petroleum", "operator": "Exolum Storage Ltd", "type": "Oil"}, "geometry": {"type": "Point", "coordinates": [0.3066481, 51.4837968]}}, {"type": "Feature", "properties": {"name": "Unnamed Oil Facility", "operator": "GPSS", "type": "Oil"}, "geometry": {"type": "Point", "coordinates": [0.4868879, 51.5202409]}}, {"type": "Feature", "properties": {"name": "Palmers Wood Oilfield", "operator": "Unknown Operator", "type": "Oil"}, "geometry": {"type": "Point", "coordinates": [-0.0465826, 51.2560199]}}, {"type": "Feature", "properties": {"name": "Eastham Oil Terminal", "operator": "Nynas", "type": "Oil"}, "geometry": {"type": "Point", "coordinates": [-2.9484212, 53.312861]}}, {"type": "Feature", "properties": {"name": "Eastham Refinery", "operator": "Unknown Operator", "type": "Oil"}, "geometry": {"type": "Point", "coordinates": [-2.9430546, 53.3128444]}}, {"type": "Feature", "properties": {"name": "Unnamed Oil Facility", "operator": "Exolum", "type": "Oil"}, "geometry": {"type": "Point", "coordinates": [-2.9457401, 53.3168612]}}, {"type": "Feature", "properties": {"name": "Innospec Manufacturing Park", "operator": "Innospec", "type": "Chemical"}, "geometry": {"type": "Point", "coordinates": [-2.878201, 53.2842198]}}, {"type": "Feature", "properties": {"name": "Broadford Bridge Oilfield", "operator": "Unknown Operator", "type": "Oil"}, "geometry": {"type": "Point", "coordinates": [-0.4480851, 50.9848346]}}, {"type": "Feature", "properties": {"name": "Gleaner Oil Depot", "operator": "Unknown Operator", "type": "Oil"}, "geometry": {"type": "Point", "coordinates": [-3.3027537, 57.643294]}}, {"type": "Feature", "properties": {"name": "CPS Fuels", "operator": "Unknown Operator", "type": "Oil"}, "geometry": {"type": "Point", "coordinates": [0.9940715, 52.1929849]}}, {"type": "Feature", "properties": {"name": "Storrington Oilfield", "operator": "Unknown Operator", "type": "Oil"}, "geometry": {"type": "Point", "coordinates": [-0.4808885, 50.9237605]}}, {"type": "Feature", "properties": {"name": "Gleaner", "operator": "Unknown Operator", "type": "Oil"}, "geometry": {"type": "Point", "coordinates": [-2.0201145, 57.526419]}}, {"type": "Feature", "properties": {"name": "CSG Recyc-Oil", "operator": "CSG", "type": "Oil Storage"}, "geometry": {"type": "Point", "coordinates": [-1.1878718, 54.5722872]}}, {"type": "Feature", "properties": {"name": "North Plating Pit", "operator": "Unknown Operator", "type": "Steelmaking"}, "geometry": {"type": "Point", "coordinates": [-0.6118922, 53.5724926]}}, {"type": "Feature", "properties": {"name": "South Plating Pit", "operator": "Unknown Operator", "type": "Steelmaking"}, "geometry": {"type": "Point", "coordinates": [-0.6117125, 53.571916]}}, {"type": "Feature", "properties": {"name": "Northern Receipt Fuel Facility", "operator": "Unknown Operator", "type": "Oil"}, "geometry": {"type": "Point", "coordinates": [-0.4912724, 51.4754748]}}, {"type": "Feature", "properties": {"name": "Unnamed Oil Facility", "operator": "BPA (British Pipeline Association)", "type": "Oil"}, "geometry": {"type": "Point", "coordinates": [-0.5477129, 51.7118864]}}, {"type": "Feature", "properties": {"name": "Abel Engineering Company", "operator": "Unknown Operator", "type": "Steel Mill"}, "geometry": {"type": "Point", "coordinates": [-1.5848734, 52.7686311]}}, {"type": "Feature", "properties": {"name": "Oil States", "operator": "Unknown Operator", "type": "Oil"}, "geometry": {"type": "Point", "coordinates": [-3.6989801, 55.8680349]}}, {"type": "Feature", "properties": {"name": "Olmarch Villa", "operator": "Unknown Operator", "type": "Steel Mill"}, "geometry": {"type": "Point", "coordinates": [-4.0122993, 52.1771366]}}, {"type": "Feature", "properties": {"name": "Charles Tennant & Co. (Chemical Distribution) Ltd.", "operator": "Unknown Operator", "type": "Chemical"}, "geometry": {"type": "Point", "coordinates": [-2.023843, 52.5233643]}}, {"type": "Feature", "properties": {"name": "Steelmart International Ltd", "operator": "Unknown Operator", "type": "Steelmaking"}, "geometry": {"type": "Point", "coordinates": [-2.4684803, 52.621637]}}, {"type": "Feature", "properties": {"name": "Goldcrest Oil Ltd (Midlands)", "operator": "Unknown Operator", "type": "Oil"}, "geometry": {"type": "Point", "coordinates": [-2.0301646, 52.527641]}}, {"type": "Feature", "properties": {"name": "Walter Watson", "operator": "Unknown Operator", "type": "Steel Mill"}, "geometry": {"type": "Point", "coordinates": [-5.9174732, 54.2906795]}}, {"type": "Feature", "properties": {"name": "Pocra Fuel Terminal", "operator": "ASCO Fuel & Lubricants", "type": "Oil"}, "geometry": {"type": "Point", "coordinates": [-2.0726053, 57.143063]}}, {"type": "Feature", "properties": {"name": "Natara Global", "operator": "Unknown Operator", "type": "Aroma Chemicals"}, "geometry": {"type": "Point", "coordinates": [-1.2636075, 54.5991109]}}, {"type": "Feature", "properties": {"name": "Unnamed Oil Facility", "operator": "Ineos FPS", "type": "Oil"}, "geometry": {"type": "Point", "coordinates": [-3.5163557, 56.183626]}}, {"type": "Feature", "properties": {"name": "Unnamed Oil Facility", "operator": "Ineos FPS", "type": "Oil"}, "geometry": {"type": "Point", "coordinates": [-3.4060846, 56.2796887]}}, {"type": "Feature", "properties": {"name": "Unnamed Oil Facility", "operator": "Ineos FPS", "type": "Oil"}, "geometry": {"type": "Point", "coordinates": [-2.3031803, 57.0887147]}}, {"type": "Feature", "properties": {"name": "Unnamed Oil Facility", "operator": "Ineos FPS", "type": "Oil"}, "geometry": {"type": "Point", "coordinates": [-2.0973536, 57.2915931]}}, {"type": "Feature", "properties": {"name": "Unnamed Oil Facility", "operator": "INEOS FPS", "type": "Oil"}, "geometry": {"type": "Point", "coordinates": [-2.3889224, 56.8719912]}}, {"type": "Feature", "properties": {"name": "Unnamed Oil Facility", "operator": "INEOS FPS", "type": "Oil"}, "geometry": {"type": "Point", "coordinates": [-2.5556219, 56.7830776]}}, {"type": "Feature", "properties": {"name": "Hamble Oil Terminal", "operator": "Unknown Operator", "type": "Oil"}, "geometry": {"type": "Point", "coordinates": [-1.3243269, 50.855245]}}, {"type": "Feature", "properties": {"name": "GPSS Backford South", "operator": "Unknown Operator", "type": "Oil"}, "geometry": {"type": "Point", "coordinates": [-2.8845996, 53.2391323]}}, {"type": "Feature", "properties": {"name": "CLH-PS Aldermaston", "operator": "Unknown Operator", "type": "Oil"}, "geometry": {"type": "Point", "coordinates": [-1.1127394, 51.3888705]}}, {"type": "Feature", "properties": {"name": "CLH-PS Walton", "operator": "Unknown Operator", "type": "Oil"}, "geometry": {"type": "Point", "coordinates": [-0.4111744, 51.3997781]}}, {"type": "Feature", "properties": {"name": "CLH-PS Claydon", "operator": "CLH-PS", "type": "Oil"}, "geometry": {"type": "Point", "coordinates": [1.0935743, 52.1091837]}}, {"type": "Feature", "properties": {"name": "Colas", "operator": "Unknown Operator", "type": "Oil"}, "geometry": {"type": "Point", "coordinates": [-2.5809012, 53.3784926]}}, {"type": "Feature", "properties": {"name": "Finnart Oil Terminal", "operator": "Unknown Operator", "type": "Oil"}, "geometry": {"type": "Point", "coordinates": [-4.8331074, 56.1135427]}}, {"type": "Feature", "properties": {"name": "Purfleet Fuels Terminal", "operator": "Esso", "type": "Oil"}, "geometry": {"type": "Point", "coordinates": [0.2469968, 51.4757628]}}, {"type": "Feature", "properties": {"name": "Redmile Petroleum Storage Depot and Tertiary Site", "operator": "Unknown Operator", "type": "Oil"}, "geometry": {"type": "Point", "coordinates": [-0.8319007, 52.9155417]}}, {"type": "Feature", "properties": {"name": "CLH-PS Hallen Petroleum Supply Depot", "operator": "CLH-PS", "type": "Oil"}, "geometry": {"type": "Point", "coordinates": [-2.6426906, 51.5128139]}}, {"type": "Feature", "properties": {"name": "INEOS", "operator": "Unknown Operator", "type": "Chemical"}, "geometry": {"type": "Point", "coordinates": [-2.7374039, 53.3191152]}}, {"type": "Feature", "properties": {"name": "Sutton and East Surrey Water Treatment Works", "operator": "Unknown Operator", "type": "Wastewater Plant"}, "geometry": {"type": "Point", "coordinates": [-0.1656206, 51.3146798]}}, {"type": "Feature", "properties": {"name": "Woodgarston Treatment Works", "operator": "Unknown Operator", "type": "Wastewater Plant"}, "geometry": {"type": "Point", "coordinates": [-1.1579372, 51.29248]}}, {"type": "Feature", "properties": {"name": "Catcliffe Treeton Lane", "operator": "Unknown Operator", "type": "Wastewater Plant"}, "geometry": {"type": "Point", "coordinates": [-1.3613388, 53.3913681]}}, {"type": "Feature", "properties": {"name": "Unnamed Wastewater Plant Facility", "operator": "Anglian Water", "type": "Wastewater Plant"}, "geometry": {"type": "Point", "coordinates": [1.2953309, 52.0801783]}}, {"type": "Feature", "properties": {"name": "Unnamed Water Works Facility", "operator": "Anglian Water", "type": "Water Works"}, "geometry": {"type": "Point", "coordinates": [-0.4654803, 53.2336153]}}, {"type": "Feature", "properties": {"name": "Ferry Lane (Thelwall) Wastewater Pumping Station", "operator": "Unknown Operator", "type": "Wastewater Plant"}, "geometry": {"type": "Point", "coordinates": [-2.5255668, 53.3840298]}}, {"type": "Feature", "properties": {"name": "Slittercombe", "operator": "Unknown Operator", "type": "Wastewater Plant"}, "geometry": {"type": "Point", "coordinates": [-3.4704731, 50.6417265]}}, {"type": "Feature", "properties": {"name": "Unnamed Wastewater Plant Facility", "operator": "Anglian Water", "type": "Wastewater Plant"}, "geometry": {"type": "Point", "coordinates": [0.9380286, 51.7758683]}}, {"type": "Feature", "properties": {"name": "Aldershot STW", "operator": "Unknown Operator", "type": "Wastewater Plant"}, "geometry": {"type": "Point", "coordinates": [-0.7375016, 51.2445559]}}, {"type": "Feature", "properties": {"name": "Pudsey Smalewell Water Treatment Works", "operator": "Yorkshire Water", "type": "Wastewater Plant"}, "geometry": {"type": "Point", "coordinates": [-1.6859729, 53.7913106]}}, {"type": "Feature", "properties": {"name": "Ravensmoor Wastewater Pumping Station", "operator": "Unknown Operator", "type": "Wastewater Plant"}, "geometry": {"type": "Point", "coordinates": [-2.5710047, 53.0498265]}}, {"type": "Feature", "properties": {"name": "Unnamed Wastewater Plant Facility", "operator": "Southern Water", "type": "Wastewater Plant"}, "geometry": {"type": "Point", "coordinates": [-1.2788423, 51.2487242]}}, {"type": "Feature", "properties": {"name": "Unnamed Wastewater Plant Facility", "operator": "Anglian Water", "type": "Wastewater Plant"}, "geometry": {"type": "Point", "coordinates": [0.2399497, 52.6435585]}}, {"type": "Feature", "properties": {"name": "Woodperry Road SPS", "operator": "Thames Water", "type": "Water Works"}, "geometry": {"type": "Point", "coordinates": [-1.1716734, 51.792235]}}, {"type": "Feature", "properties": {"name": "Scottish Water", "operator": "Unknown Operator", "type": "Wastewater Plant"}, "geometry": {"type": "Point", "coordinates": [-4.0745372, 56.1915385]}}, {"type": "Feature", "properties": {"name": "Lyme Grove wastewater pumping station", "operator": "Unknown Operator", "type": "Wastewater Plant"}, "geometry": {"type": "Point", "coordinates": [-2.0818597, 53.4120291]}}, {"type": "Feature", "properties": {"name": "Partington Wastewater Trearment Works", "operator": "Unknown Operator", "type": "Wastewater Plant"}, "geometry": {"type": "Point", "coordinates": [-2.4446182, 53.4148021]}}, {"type": "Feature", "properties": {"name": "DLC Site", "operator": "Unknown Operator", "type": "Wastewater Plant"}, "geometry": {"type": "Point", "coordinates": [-3.0369864, 54.4334963]}}, {"type": "Feature", "properties": {"name": "Kirkhill Wastewater Treatment Plant", "operator": "Scottish Water", "type": "Wastewater Plant"}, "geometry": {"type": "Point", "coordinates": [-4.3956487, 57.4749082]}}, {"type": "Feature", "properties": {"name": "Elton River Lane terminal Pumping Station", "operator": "Unknown Operator", "type": "Water Works"}, "geometry": {"type": "Point", "coordinates": [-0.4025985, 52.5329624]}}, {"type": "Feature", "properties": {"name": "Melbury", "operator": "Unknown Operator", "type": "Water Works"}, "geometry": {"type": "Point", "coordinates": [-4.2973936, 50.9583638]}}, {"type": "Feature", "properties": {"name": "Brighouse Waste Water Treatment Works", "operator": "Unknown Operator", "type": "Wastewater Plant"}, "geometry": {"type": "Point", "coordinates": [-1.7330867, 53.6826173]}}, {"type": "Feature", "properties": {"name": "Luckett sewage works", "operator": "Unknown Operator", "type": "Wastewater Plant"}, "geometry": {"type": "Point", "coordinates": [-4.2724846, 50.5409345]}}, {"type": "Feature", "properties": {"name": "Baggs Mill River Flow Rate Station", "operator": "Unknown Operator", "type": "Water Works"}, "geometry": {"type": "Point", "coordinates": [-2.1243285, 50.6880965]}}, {"type": "Feature", "properties": {"name": "Lake Lane Waste Water treatment", "operator": "Unknown Operator", "type": "Wastewater Plant"}, "geometry": {"type": "Point", "coordinates": [-4.4500369, 50.4539687]}}, {"type": "Feature", "properties": {"name": "Unnamed Water Works Facility", "operator": "Scottish Water", "type": "Water Works"}, "geometry": {"type": "Point", "coordinates": [-4.6197292, 57.1456218]}}, {"type": "Feature", "properties": {"name": "Low Level Clifton Pumping Station", "operator": "Unknown Operator", "type": "Water Works"}, "geometry": {"type": "Point", "coordinates": [-2.6298492, 51.4617321]}}, {"type": "Feature", "properties": {"name": "Avon Chapel Pill Outfalls", "operator": "Unknown Operator", "type": "Water Works"}, "geometry": {"type": "Point", "coordinates": [-2.6572279, 51.4829901]}}, {"type": "Feature", "properties": {"name": "Avon Chapel Pill", "operator": "Unknown Operator", "type": "Water Works"}, "geometry": {"type": "Point", "coordinates": [-2.6542778, 51.4810201]}}, {"type": "Feature", "properties": {"name": "Wanborough Road Storm Tank", "operator": "Unknown Operator", "type": "Water Works"}, "geometry": {"type": "Point", "coordinates": [-1.7334797, 51.5736969]}}, {"type": "Feature", "properties": {"name": "Weedon Road Storm Tank", "operator": "Unknown Operator", "type": "Water Works"}, "geometry": {"type": "Point", "coordinates": [-1.7479353, 51.5712567]}}, {"type": "Feature", "properties": {"name": "Fleets Lane Distribution Site", "operator": "Wessex Water", "type": "Water Works"}, "geometry": {"type": "Point", "coordinates": [-1.9867747, 50.7358016]}}, {"type": "Feature", "properties": {"name": "Brislington Boat Screen", "operator": "Unknown Operator", "type": "Water Works"}, "geometry": {"type": "Point", "coordinates": [-2.5433049, 51.4461379]}}, {"type": "Feature", "properties": {"name": "Unnamed Water Works Facility", "operator": "Anglian Water", "type": "Water Works"}, "geometry": {"type": "Point", "coordinates": [0.5287669, 52.3518445]}}, {"type": "Feature", "properties": {"name": "Pill Head, Pilning Pumping Station", "operator": "Unknown Operator", "type": "Water Works"}, "geometry": {"type": "Point", "coordinates": [-2.6515718, 51.5711574]}}, {"type": "Feature", "properties": {"name": "Chestle Pill Outfall", "operator": "Unknown Operator", "type": "Water Works"}, "geometry": {"type": "Point", "coordinates": [-2.6562826, 51.5738358]}}, {"type": "Feature", "properties": {"name": "Panmurefield Screening Chambers", "operator": "Scottish Water", "type": "Wastewater Plant"}, "geometry": {"type": "Point", "coordinates": [-2.847529, 56.48229]}}, {"type": "Feature", "properties": {"name": "Park North SPS", "operator": "Unknown Operator", "type": "Wastewater Plant"}, "geometry": {"type": "Point", "coordinates": [-1.7456759, 51.5627767]}}, {"type": "Feature", "properties": {"name": "New Pill Outfall", "operator": "Unknown Operator", "type": "Water Works"}, "geometry": {"type": "Point", "coordinates": [-2.6708806, 51.544666]}}, {"type": "Feature", "properties": {"name": "Water Treatment Works", "operator": "Unknown Operator", "type": "Water Works"}, "geometry": {"type": "Point", "coordinates": [-5.0927402, 56.223138]}}, {"type": "Feature", "properties": {"name": "Cock Lane Pumping Station", "operator": "Thames Water", "type": "Water Works"}, "geometry": {"type": "Point", "coordinates": [-0.703936, 51.6324729]}}, {"type": "Feature", "properties": {"name": "Ram Pump", "operator": "Unknown Operator", "type": "Water Works"}, "geometry": {"type": "Point", "coordinates": [-0.0203704, 53.1981308]}}, {"type": "Feature", "properties": {"name": "Britty Hill Water Treatment Works", "operator": "Unknown Operator", "type": "Wastewater Plant"}, "geometry": {"type": "Point", "coordinates": [-0.7043804, 51.1977749]}}, {"type": "Feature", "properties": {"name": "Unnamed Wastewater Plant Facility", "operator": "South West Water", "type": "Wastewater Plant"}, "geometry": {"type": "Point", "coordinates": [-3.8074291, 50.2355486]}}, {"type": "Feature", "properties": {"name": "Billy Kirkham Sluice", "operator": "Unknown Operator", "type": "Water Works"}, "geometry": {"type": "Point", "coordinates": [0.3714116, 52.7830987]}}, {"type": "Feature", "properties": {"name": "Unnamed Water Works Facility", "operator": "Thames Water", "type": "Water Works"}, "geometry": {"type": "Point", "coordinates": [-0.999075, 51.7832439]}}, {"type": "Feature", "properties": {"name": "Pumping Station", "operator": "Unknown Operator", "type": "Water Works"}, "geometry": {"type": "Point", "coordinates": [-0.9631566, 52.0155707]}}, {"type": "Feature", "properties": {"name": "Water Pumping Station", "operator": "Unknown Operator", "type": "Water Works"}, "geometry": {"type": "Point", "coordinates": [-1.163144, 50.732998]}}, {"type": "Feature", "properties": {"name": "Unnamed Water Works Facility", "operator": "Southern Water", "type": "Water Works"}, "geometry": {"type": "Point", "coordinates": [-1.3107324, 50.69124]}}, {"type": "Feature", "properties": {"name": "Severn Trent Reservoir", "operator": "Unknown Operator", "type": "Water Works"}, "geometry": {"type": "Point", "coordinates": [-2.2966719, 52.3608434]}}, {"type": "Feature", "properties": {"name": "Keldhead Water Treatment Plant", "operator": "Unknown Operator", "type": "Wastewater Plant"}, "geometry": {"type": "Point", "coordinates": [-0.7932396, 54.2495035]}}, {"type": "Feature", "properties": {"name": "Pumping Station", "operator": "Southern Water", "type": "Water Works"}, "geometry": {"type": "Point", "coordinates": [-1.3239377, 50.7622247]}}, {"type": "Feature", "properties": {"name": "Great Bounds Service Reservoir", "operator": "South East Water", "type": "Water Works"}, "geometry": {"type": "Point", "coordinates": [0.2484745, 51.1700193]}}, {"type": "Feature", "properties": {"name": "Essex & Suffolk Waterworks", "operator": "Unknown Operator", "type": "Water Works"}, "geometry": {"type": "Point", "coordinates": [1.4899338, 52.6940512]}}, {"type": "Feature", "properties": {"name": "Portmans Road SPS", "operator": "Thames Water", "type": "Water Works"}, "geometry": {"type": "Point", "coordinates": [-0.9994823, 51.4609614]}}, {"type": "Feature", "properties": {"name": "Timbersbrook Wastewater Treatment Works", "operator": "Unknown Operator", "type": "Wastewater Plant"}, "geometry": {"type": "Point", "coordinates": [-2.1587892, 53.1622422]}}, {"type": "Feature", "properties": {"name": "Filter Beds", "operator": "Unknown Operator", "type": "Wastewater Plant"}, "geometry": {"type": "Point", "coordinates": [-1.2585354, 50.641009]}}, {"type": "Feature", "properties": {"name": "Filter Beds", "operator": "Unknown Operator", "type": "Wastewater Plant"}, "geometry": {"type": "Point", "coordinates": [-1.2739366, 50.6160709]}}, {"type": "Feature", "properties": {"name": "Southern Water Works", "operator": "Southern Water", "type": "Water Works"}, "geometry": {"type": "Point", "coordinates": [0.0124657, 50.8714459]}}, {"type": "Feature", "properties": {"name": "Mina Road CSO", "operator": "Unknown Operator", "type": "Water Works"}, "geometry": {"type": "Point", "coordinates": [-2.577513, 51.4734127]}}, {"type": "Feature", "properties": {"name": "Monkton Mead Pumping Station", "operator": "Unknown Operator", "type": "Water Works"}, "geometry": {"type": "Point", "coordinates": [-1.1516577, 50.7310854]}}, {"type": "Feature", "properties": {"name": "Unnamed Wastewater Plant Facility", "operator": "Anglian Water", "type": "Wastewater Plant"}, "geometry": {"type": "Point", "coordinates": [-0.1262883, 52.8435979]}}, {"type": "Feature", "properties": {"name": "Unnamed Water Works Facility", "operator": "Yorkshire Water", "type": "Water Works"}, "geometry": {"type": "Point", "coordinates": [-1.3969088, 53.8344578]}}, {"type": "Feature", "properties": {"name": "Katrine Pier Raw Water Pumping Station", "operator": "Unknown Operator", "type": "Water Works"}, "geometry": {"type": "Point", "coordinates": [-4.4309738, 56.2360957]}}, {"type": "Feature", "properties": {"name": "Canford Lane CSO", "operator": "Unknown Operator", "type": "Water Works"}, "geometry": {"type": "Point", "coordinates": [-2.6242009, 51.4945988]}}, {"type": "Feature", "properties": {"name": "Westbury CSO", "operator": "Unknown Operator", "type": "Water Works"}, "geometry": {"type": "Point", "coordinates": [-2.617262, 51.4883554]}}, {"type": "Feature", "properties": {"name": "Unnamed Water Works Facility", "operator": "D\u0175r Cymru Welsh Water", "type": "Water Works"}, "geometry": {"type": "Point", "coordinates": [-2.9527785, 51.6147194]}}, {"type": "Feature", "properties": {"name": "Oakhill WwTW", "operator": "Wessex Water", "type": "Wastewater Plant"}, "geometry": {"type": "Point", "coordinates": [-2.5026163, 51.2333382]}}, {"type": "Feature", "properties": {"name": "Thorp Arch", "operator": "Yorkshire Water", "type": "Water Works"}, "geometry": {"type": "Point", "coordinates": [-1.3227385, 53.9147564]}}, {"type": "Feature", "properties": {"name": "Fender Mine Water Treatment Scheme", "operator": "Unknown Operator", "type": "Wastewater Plant"}, "geometry": {"type": "Point", "coordinates": [-1.4498463, 53.2699587]}}, {"type": "Feature", "properties": {"name": "Diamond Avenue Water Works", "operator": "Severn Trent", "type": "Water Works"}, "geometry": {"type": "Point", "coordinates": [-1.2342774, 53.0960952]}}, {"type": "Feature", "properties": {"name": "Park Road South Borehole", "operator": "United Utilities", "type": "Water Works"}, "geometry": {"type": "Point", "coordinates": [-2.6187716, 53.4482793]}}, {"type": "Feature", "properties": {"name": "WW2 RAF Davidstow Water Pumping Station", "operator": "Unknown Operator", "type": "Water Works"}, "geometry": {"type": "Point", "coordinates": [-4.6134877, 50.6536445]}}, {"type": "Feature", "properties": {"name": "WW2 RAF Davidstow Sewage Disposal", "operator": "RAF", "type": "Wastewater Plant"}, "geometry": {"type": "Point", "coordinates": [-4.6489867, 50.6337542]}}, {"type": "Feature", "properties": {"name": "WW2 RAF Davidstow Sewage Disposal", "operator": "RAF", "type": "Wastewater Plant"}, "geometry": {"type": "Point", "coordinates": [-4.6212741, 50.649177]}}, {"type": "Feature", "properties": {"name": "Sutton Courtenay Pumping Station", "operator": "Unknown Operator", "type": "Water Works"}, "geometry": {"type": "Point", "coordinates": [-1.2536596, 51.647677]}}, {"type": "Feature", "properties": {"name": "Unnamed Water Works Facility", "operator": "United Utilities", "type": "Water Works"}, "geometry": {"type": "Point", "coordinates": [-2.7184677, 53.7496584]}}, {"type": "Feature", "properties": {"name": "Worthington Water Treatment Works", "operator": "United Utilities", "type": "Water Works"}, "geometry": {"type": "Point", "coordinates": [-2.6349002, 53.5874262]}}, {"type": "Feature", "properties": {"name": "Snitterton Sewage Pumping Station", "operator": "Unknown Operator", "type": "Wastewater Plant"}, "geometry": {"type": "Point", "coordinates": [-1.5829995, 53.1425779]}}, {"type": "Feature", "properties": {"name": "Lochay Surge Shaft", "operator": "Unknown Operator", "type": "Water Works"}, "geometry": {"type": "Point", "coordinates": [-4.3654193, 56.4902347]}}, {"type": "Feature", "properties": {"name": "Cotton of Balgownie Wastewater Pumping Station", "operator": "Unknown Operator", "type": "Wastewater Plant"}, "geometry": {"type": "Point", "coordinates": [-2.0982222, 57.1774016]}}, {"type": "Feature", "properties": {"name": "Unnamed Water Works Facility", "operator": "Thames Water", "type": "Water Works"}, "geometry": {"type": "Point", "coordinates": [-1.5300258, 51.5868758]}}, {"type": "Feature", "properties": {"name": "Water Test Centre", "operator": "Unknown Operator", "type": "Water Works"}, "geometry": {"type": "Point", "coordinates": [-3.1221334, 58.8360044]}}, {"type": "Feature", "properties": {"name": "Unnamed Wastewater Plant Facility", "operator": "Scottish Water", "type": "Wastewater Plant"}, "geometry": {"type": "Point", "coordinates": [-4.0618317, 57.8864134]}}, {"type": "Feature", "properties": {"name": "Colony Marsh pumping station", "operator": "Unknown Operator", "type": "Water Works"}, "geometry": {"type": "Point", "coordinates": [1.4727581, 52.0551228]}}, {"type": "Feature", "properties": {"name": "Sharpness STW", "operator": "Severn Trent", "type": "Wastewater Plant"}, "geometry": {"type": "Point", "coordinates": [-2.4827703, 51.7105481]}}, {"type": "Feature", "properties": {"name": "Balmalcolm Borehole", "operator": "Scottish Water", "type": "Water Works"}, "geometry": {"type": "Point", "coordinates": [-3.0948422, 56.265489]}}, {"type": "Feature", "properties": {"name": "Kenley Treatment Works", "operator": "SES Water", "type": "Water Works"}, "geometry": {"type": "Point", "coordinates": [-0.0964101, 51.3238898]}}, {"type": "Feature", "properties": {"name": "Cappagh Browne", "operator": "Cappagh Browne (on behalf of Southern Water)", "type": "Wastewater Plant"}, "geometry": {"type": "Point", "coordinates": [0.5217074, 50.8515989]}}, {"type": "Feature", "properties": {"name": "Croco Park", "operator": "Unknown Operator", "type": "Wastewater Plant"}, "geometry": {"type": "Point", "coordinates": [-2.3649183, 53.1958407]}}, {"type": "Feature", "properties": {"name": "Cranbrook Road Bristol Combined Sewer Overflow", "operator": "Unknown Operator", "type": "Wastewater Plant"}, "geometry": {"type": "Point", "coordinates": [-2.5979099, 51.4731939]}}, {"type": "Feature", "properties": {"name": "Romanby Oaktree", "operator": "Unknown Operator", "type": "Wastewater Plant"}, "geometry": {"type": "Point", "coordinates": [-1.4448874, 54.3263637]}}, {"type": "Feature", "properties": {"name": "Shaft 1", "operator": "Anglian Water", "type": "Water Works"}, "geometry": {"type": "Point", "coordinates": [-0.4155973, 52.5949957]}}, {"type": "Feature", "properties": {"name": "Green Water Box", "operator": "Unknown Operator", "type": "Water Works"}, "geometry": {"type": "Point", "coordinates": [-3.8580561, 52.3398583]}}, {"type": "Feature", "properties": {"name": "Water Treatment Plant", "operator": "Unknown Operator", "type": "Water Works"}, "geometry": {"type": "Point", "coordinates": [-2.949559, 50.8519917]}}, {"type": "Feature", "properties": {"name": "Unnamed Water Works Facility", "operator": "Bristol Waterworks", "type": "Water Works"}, "geometry": {"type": "Point", "coordinates": [-2.7703477, 51.2815264]}}, {"type": "Feature", "properties": {"name": "Combined Sewer Overflow", "operator": "Unknown Operator", "type": "Water Works"}, "geometry": {"type": "Point", "coordinates": [-2.606911, 51.4658997]}}, {"type": "Feature", "properties": {"name": "Unnamed Water Works Facility", "operator": "Dwr Cymru", "type": "Water Works"}, "geometry": {"type": "Point", "coordinates": [-2.9698068, 51.6267932]}}, {"type": "Feature", "properties": {"name": "Unnamed Wastewater Plant Facility", "operator": "Thames Water", "type": "Wastewater Plant"}, "geometry": {"type": "Point", "coordinates": [-0.6065568, 51.560633]}}, {"type": "Feature", "properties": {"name": "Unnamed Water Works Facility", "operator": "Scottish Water", "type": "Water Works"}, "geometry": {"type": "Point", "coordinates": [-5.6158999, 56.0237075]}}, {"type": "Feature", "properties": {"name": "Little Budworth South WwTW", "operator": "Unknown Operator", "type": "Wastewater Plant"}, "geometry": {"type": "Point", "coordinates": [-2.5975327, 53.1852738]}}, {"type": "Feature", "properties": {"name": "Greencastle WwPS", "operator": "Northern Ireland Water", "type": "Wastewater Plant"}, "geometry": {"type": "Point", "coordinates": [-5.9213984, 54.6360154]}}, {"type": "Feature", "properties": {"name": "Atherfield drive waste water pumping station", "operator": "Unknown Operator", "type": "Wastewater Plant"}, "geometry": {"type": "Point", "coordinates": [0.8669884, 51.1474195]}}, {"type": "Feature", "properties": {"name": "Cambridge Sewage Works", "operator": "Anglian Water", "type": "Wastewater Plant"}, "geometry": {"type": "Point", "coordinates": [0.1591674, 52.2331871]}}, {"type": "Feature", "properties": {"name": "Mogden Sewage Works", "operator": "Thames Water", "type": "Wastewater Plant"}, "geometry": {"type": "Point", "coordinates": [-0.3402621, 51.4627273]}}, {"type": "Feature", "properties": {"name": "Oxford Sewage Treatment Works", "operator": "Thames Water", "type": "Wastewater Plant"}, "geometry": {"type": "Point", "coordinates": [-1.2144867, 51.7133418]}}, {"type": "Feature", "properties": {"name": "Bishop Wilton/STW", "operator": "Yorkshire Water", "type": "Wastewater Plant"}, "geometry": {"type": "Point", "coordinates": [-0.7928016, 53.9796815]}}, {"type": "Feature", "properties": {"name": "Balsham Sewage Works", "operator": "Anglian Water", "type": "Wastewater Plant"}, "geometry": {"type": "Point", "coordinates": [0.2979761, 52.1364706]}}, {"type": "Feature", "properties": {"name": "Blakesley Sewage Treatment Works", "operator": "Anglian Water", "type": "Wastewater Plant"}, "geometry": {"type": "Point", "coordinates": [-1.0836657, 52.1435646]}}, {"type": "Feature", "properties": {"name": "Yardley Hastings STW", "operator": "Anglian Water", "type": "Wastewater Plant"}, "geometry": {"type": "Point", "coordinates": [-0.7323681, 52.2081918]}}, {"type": "Feature", "properties": {"name": "Ashford Wastewater Treatment Works", "operator": "Southern Water", "type": "Wastewater Plant"}, "geometry": {"type": "Point", "coordinates": [0.8890503, 51.1534736]}}, {"type": "Feature", "properties": {"name": "Long Reach Sewage Treatment Works", "operator": "Thames Water", "type": "Wastewater Plant"}, "geometry": {"type": "Point", "coordinates": [0.2353543, 51.4678385]}}, {"type": "Feature", "properties": {"name": "Newbridge Waste Water Treatment Works", "operator": "Veolia", "type": "Wastewater Plant"}, "geometry": {"type": "Point", "coordinates": [-3.3992071, 55.9434272]}}, {"type": "Feature", "properties": {"name": "Airyhall Distribution Service Reservoir", "operator": "Scottish Water", "type": "Water Works"}, "geometry": {"type": "Point", "coordinates": [-2.1505539, 57.1278527]}}, {"type": "Feature", "properties": {"name": "Bassingbourn STW", "operator": "Anglian Water", "type": "Wastewater Plant"}, "geometry": {"type": "Point", "coordinates": [-0.0567293, 52.0894061]}}, {"type": "Feature", "properties": {"name": "Bromborough Wastewater Treatment Works", "operator": "United Utilities", "type": "Wastewater Plant"}, "geometry": {"type": "Point", "coordinates": [-2.9886577, 53.3594971]}}, {"type": "Feature", "properties": {"name": "Beckton Sewage Treatment Works", "operator": "Thames Water", "type": "Wastewater Plant"}, "geometry": {"type": "Point", "coordinates": [0.0836316, 51.5196667]}}, {"type": "Feature", "properties": {"name": "Pixham Sewage Treatment Works", "operator": "Thames Water", "type": "Wastewater Plant"}, "geometry": {"type": "Point", "coordinates": [-0.3155349, 51.2413378]}}, {"type": "Feature", "properties": {"name": "Godstone WTW", "operator": "Southern Water", "type": "Wastewater Plant"}, "geometry": {"type": "Point", "coordinates": [-0.0452199, 51.236415]}}, {"type": "Feature", "properties": {"name": "Shamley Green STW", "operator": "Thames Water", "type": "Wastewater Plant"}, "geometry": {"type": "Point", "coordinates": [-0.5407992, 51.1843102]}}, {"type": "Feature", "properties": {"name": "Warrington North Wastewater Treatment Works", "operator": "United Utilities", "type": "Wastewater Plant"}, "geometry": {"type": "Point", "coordinates": [-2.6276674, 53.3785108]}}, {"type": "Feature", "properties": {"name": "Woking Sewage Treatment Works", "operator": "Thames Water", "type": "Wastewater Plant"}, "geometry": {"type": "Point", "coordinates": [-0.5247609, 51.3070314]}}, {"type": "Feature", "properties": {"name": "Ripley STW", "operator": "Thames Water", "type": "Wastewater Plant"}, "geometry": {"type": "Point", "coordinates": [-0.5039347, 51.3035447]}}, {"type": "Feature", "properties": {"name": "Hornsey Water Treatment Works", "operator": "Thames Water", "type": "Water Works"}, "geometry": {"type": "Point", "coordinates": [-0.1180256, 51.5935172]}}, {"type": "Feature", "properties": {"name": "Acton Storm Tanks", "operator": "Thames Water", "type": "Wastewater Plant"}, "geometry": {"type": "Point", "coordinates": [-0.2548987, 51.5028076]}}, {"type": "Feature", "properties": {"name": "Edenbridge WTW", "operator": "Southern Water", "type": "Wastewater Plant"}, "geometry": {"type": "Point", "coordinates": [0.0785342, 51.2043477]}}, {"type": "Feature", "properties": {"name": "Salisbury Wastewater Plant", "operator": "Wessex Water", "type": "Wastewater Plant"}, "geometry": {"type": "Point", "coordinates": [-1.773318, 51.0577142]}}, {"type": "Feature", "properties": {"name": "Horley (Surrey) WWTW", "operator": "Thames Water", "type": "Wastewater Plant"}, "geometry": {"type": "Point", "coordinates": [-0.1858335, 51.1782288]}}, {"type": "Feature", "properties": {"name": "Holmwood Sewage Works", "operator": "Thames Water", "type": "Wastewater Plant"}, "geometry": {"type": "Point", "coordinates": [-0.3012725, 51.1918573]}}, {"type": "Feature", "properties": {"name": "Riverside Sewage Treatment Works", "operator": "Thames Water", "type": "Wastewater Plant"}, "geometry": {"type": "Point", "coordinates": [0.1811081, 51.5183964]}}, {"type": "Feature", "properties": {"name": "Calder Vale/STW", "operator": "Yorkshire Water", "type": "Wastewater Plant"}, "geometry": {"type": "Point", "coordinates": [-1.4807642, 53.6777904]}}, {"type": "Feature", "properties": {"name": "Merstham WWTW", "operator": "Thames Water", "type": "Wastewater Plant"}, "geometry": {"type": "Point", "coordinates": [-0.1425417, 51.2543367]}}, {"type": "Feature", "properties": {"name": "Slowhill Copse Wastewater Treatment Works", "operator": "Southern Water", "type": "Wastewater Plant"}, "geometry": {"type": "Point", "coordinates": [-1.4557921, 50.898835]}}, {"type": "Feature", "properties": {"name": "Blackburn Meadows Wastewater Treatment Works", "operator": "Yorkshire Water", "type": "Wastewater Plant"}, "geometry": {"type": "Point", "coordinates": [-1.4018815, 53.421486]}}, {"type": "Feature", "properties": {"name": "Chickenhall Eastleigh WTW", "operator": "Southern Water", "type": "Wastewater Plant"}, "geometry": {"type": "Point", "coordinates": [-1.3377561, 50.9614871]}}, {"type": "Feature", "properties": {"name": "Middleton Stoney Wastewater Treatment Works", "operator": "Thames Water", "type": "Wastewater Plant"}, "geometry": {"type": "Point", "coordinates": [-1.2196176, 51.9086901]}}, {"type": "Feature", "properties": {"name": "Kempton Park Water Treatment Works", "operator": "Thames Water", "type": "Water Works"}, "geometry": {"type": "Point", "coordinates": [-0.4027671, 51.4269252]}}, {"type": "Feature", "properties": {"name": "Bedford Sewage Treatment Works", "operator": "Anglian Water", "type": "Wastewater Plant"}, "geometry": {"type": "Point", "coordinates": [-0.4185853, 52.1337815]}}, {"type": "Feature", "properties": {"name": "Mill Green Sewage Treatment Works", "operator": "Thames Water", "type": "Wastewater Plant"}, "geometry": {"type": "Point", "coordinates": [-0.1977368, 51.7747326]}}, {"type": "Feature", "properties": {"name": "Lancaster (Stodday) STW", "operator": "United Utilities", "type": "Wastewater Plant"}, "geometry": {"type": "Point", "coordinates": [-2.8246826, 54.0235402]}}, {"type": "Feature", "properties": {"name": "Berkhamsted Wastewater Treatment Works", "operator": "Unknown Operator", "type": "Wastewater Plant"}, "geometry": {"type": "Point", "coordinates": [-0.5352849, 51.7517931]}}, {"type": "Feature", "properties": {"name": "East Hyde Sewage Treatment Works", "operator": "Thames Water", "type": "Wastewater Plant"}, "geometry": {"type": "Point", "coordinates": [-0.3722552, 51.8476577]}}, {"type": "Feature", "properties": {"name": "East Hyde Sewage Treatment Works", "operator": "Thames Water", "type": "Wastewater Plant"}, "geometry": {"type": "Point", "coordinates": [-0.375465, 51.8506014]}}, {"type": "Feature", "properties": {"name": "Balmore Water Treatment Works", "operator": "Scottish Water", "type": "Water Works"}, "geometry": {"type": "Point", "coordinates": [-4.2370389, 55.9401112]}}, {"type": "Feature", "properties": {"name": "Pirbright (Hockford) STW", "operator": "Thames Water", "type": "Wastewater Plant"}, "geometry": {"type": "Point", "coordinates": [-0.6256128, 51.2788444]}}, {"type": "Feature", "properties": {"name": "Shalford Water Treatment Works", "operator": "Unknown Operator", "type": "Water Works"}, "geometry": {"type": "Point", "coordinates": [-0.5719737, 51.2211319]}}, {"type": "Feature", "properties": {"name": "Lingfield WTW", "operator": "Southern Water", "type": "Wastewater Plant"}, "geometry": {"type": "Point", "coordinates": [-0.0165355, 51.1875801]}}, {"type": "Feature", "properties": {"name": "Peacehaven Waste Water Treatment Works", "operator": "Southern Water", "type": "Wastewater Plant"}, "geometry": {"type": "Point", "coordinates": [0.015133, 50.7959282]}}, {"type": "Feature", "properties": {"name": "Teversham STW", "operator": "Anglian Water", "type": "Wastewater Plant"}, "geometry": {"type": "Point", "coordinates": [0.2076757, 52.2022465]}}, {"type": "Feature", "properties": {"name": "Seafield Wastewater Treatment Works", "operator": "Scottish Water", "type": "Wastewater Plant"}, "geometry": {"type": "Point", "coordinates": [-3.142511, 55.9717298]}}, {"type": "Feature", "properties": {"name": "Kilbury Water Treatment Works", "operator": "South West Water", "type": "Wastewater Plant"}, "geometry": {"type": "Point", "coordinates": [-3.7630754, 50.4792789]}}, {"type": "Feature", "properties": {"name": "Fringford STW", "operator": "Anglian Water", "type": "Wastewater Plant"}, "geometry": {"type": "Point", "coordinates": [-1.1150804, 51.9566648]}}, {"type": "Feature", "properties": {"name": "Hurdcott STW", "operator": "Wessex Water", "type": "Wastewater Plant"}, "geometry": {"type": "Point", "coordinates": [-1.7637894, 51.1026532]}}, {"type": "Feature", "properties": {"name": "Edgbaston Water Works", "operator": "Severn Trent Water", "type": "Water Works"}, "geometry": {"type": "Point", "coordinates": [-1.9340506, 52.4761304]}}, {"type": "Feature", "properties": {"name": "Esholt Waste Water Treatment Works", "operator": "Unknown Operator", "type": "Wastewater Plant"}, "geometry": {"type": "Point", "coordinates": [-1.7181742, 53.857418]}}, {"type": "Feature", "properties": {"name": "Wishford", "operator": "Wessex Water", "type": "Wastewater Plant"}, "geometry": {"type": "Point", "coordinates": [-1.878867, 51.1024739]}}, {"type": "Feature", "properties": {"name": "Croston Wastewater Treatment Works", "operator": "Unknown Operator", "type": "Wastewater Plant"}, "geometry": {"type": "Point", "coordinates": [-2.7884123, 53.6624496]}}, {"type": "Feature", "properties": {"name": "Galley Hill Treatment Works", "operator": "Southern Water", "type": "Wastewater Plant"}, "geometry": {"type": "Point", "coordinates": [0.4938221, 50.8408733]}}, {"type": "Feature", "properties": {"name": "Gerrards Cross Wastewater Treatment Works", "operator": "Thames Water", "type": "Wastewater Plant"}, "geometry": {"type": "Point", "coordinates": [-0.530926, 51.5777701]}}, {"type": "Feature", "properties": {"name": "Crossness Sewage Treatment Works", "operator": "Thames Water", "type": "Wastewater Plant"}, "geometry": {"type": "Point", "coordinates": [0.1415753, 51.5048549]}}, {"type": "Feature", "properties": {"name": "Burton-in-Lonsdale STW", "operator": "United Utilities", "type": "Wastewater Plant"}, "geometry": {"type": "Point", "coordinates": [-2.5369229, 54.1423357]}}, {"type": "Feature", "properties": {"name": "Beeston - Lilac Grove (STW)", "operator": "Severn Trent", "type": "Wastewater Plant"}, "geometry": {"type": "Point", "coordinates": [-1.1958724, 52.9227957]}}, {"type": "Feature", "properties": {"name": "Toton STW", "operator": "Severn Trent Water Ltd", "type": "Wastewater Plant"}, "geometry": {"type": "Point", "coordinates": [-1.2435655, 52.9003015]}}, {"type": "Feature", "properties": {"name": "Ingleton STW", "operator": "United Utilities", "type": "Wastewater Plant"}, "geometry": {"type": "Point", "coordinates": [-2.4798271, 54.1491807]}}, {"type": "Feature", "properties": {"name": "Clandon Works", "operator": "Unknown Operator", "type": "Water Works"}, "geometry": {"type": "Point", "coordinates": [-0.5010698, 51.2453793]}}, {"type": "Feature", "properties": {"name": "Unnamed Wastewater Plant Facility", "operator": "United_Utilities", "type": "Wastewater Plant"}, "geometry": {"type": "Point", "coordinates": [-2.2949645, 54.0549335]}}, {"type": "Feature", "properties": {"name": "Southport (Bank End) STW", "operator": "United Utilities", "type": "Wastewater Plant"}, "geometry": {"type": "Point", "coordinates": [-2.9558549, 53.678887]}}, {"type": "Feature", "properties": {"name": "Wootton Wawen STW", "operator": "Severn Trent", "type": "Wastewater Plant"}, "geometry": {"type": "Point", "coordinates": [-1.7824252, 52.2595233]}}, {"type": "Feature", "properties": {"name": "Warrington South WWTW", "operator": "United Utilities", "type": "Wastewater Plant"}, "geometry": {"type": "Point", "coordinates": [-2.6230599, 53.3642106]}}, {"type": "Feature", "properties": {"name": "Mythe Treatment Works", "operator": "Unknown Operator", "type": "Water Works"}, "geometry": {"type": "Point", "coordinates": [-2.1615403, 52.0003017]}}, {"type": "Feature", "properties": {"name": "Wastewater Treatment Plant", "operator": "Unknown Operator", "type": "Water Treatment"}, "geometry": {"type": "Point", "coordinates": [-2.8453234, 53.3800867]}}, {"type": "Feature", "properties": {"name": "Skelmersdale Wastewater Treatment Works", "operator": "United Utilities", "type": "Wastewater Plant"}, "geometry": {"type": "Point", "coordinates": [-2.7938276, 53.5925039]}}, {"type": "Feature", "properties": {"name": "Coniston Waste Water Treatment Works", "operator": "United Utilities", "type": "Wastewater Plant"}, "geometry": {"type": "Point", "coordinates": [-3.0688597, 54.3647437]}}, {"type": "Feature", "properties": {"name": "Broadholme STW", "operator": "Anglian Water", "type": "Wastewater Plant"}, "geometry": {"type": "Point", "coordinates": [-0.6231723, 52.3096144]}}, {"type": "Feature", "properties": {"name": "Hillhouse Wastewater Treatment Works", "operator": "United Utilities", "type": "Wastewater Plant"}, "geometry": {"type": "Point", "coordinates": [-2.9831486, 53.5451879]}}, {"type": "Feature", "properties": {"name": "Horspath Reservoir", "operator": "Unknown Operator", "type": "Water Works"}, "geometry": {"type": "Point", "coordinates": [-1.1682645, 51.7482572]}}, {"type": "Feature", "properties": {"name": "East Calder Waste Water Treatment Works", "operator": "Veolia Water Industrial Outsourcing Ltd", "type": "Wastewater Plant"}, "geometry": {"type": "Point", "coordinates": [-3.4706509, 55.8981104]}}, {"type": "Feature", "properties": {"name": "Bocking STW", "operator": "Anglian Water", "type": "Wastewater Plant"}, "geometry": {"type": "Point", "coordinates": [0.5787472, 51.8905677]}}, {"type": "Feature", "properties": {"name": "Retford Sewage Treatment Works", "operator": "Unknown Operator", "type": "Wastewater Plant"}, "geometry": {"type": "Point", "coordinates": [-0.9558223, 53.3376449]}}, {"type": "Feature", "properties": {"name": "Coton STW", "operator": "Anglian Water", "type": "Wastewater Plant"}, "geometry": {"type": "Point", "coordinates": [0.0630527, 52.2055302]}}, {"type": "Feature", "properties": {"name": "Forest Hill Wastewater Treatment Works", "operator": "Unknown Operator", "type": "Wastewater Plant"}, "geometry": {"type": "Point", "coordinates": [-1.1478868, 51.7678334]}}, {"type": "Feature", "properties": {"name": "Emery Down Reservoir", "operator": "Southern Water", "type": "Water Works"}, "geometry": {"type": "Point", "coordinates": [-1.593876, 50.8724054]}}, {"type": "Feature", "properties": {"name": "Little Marlow WWTW", "operator": "Thames Water", "type": "Wastewater Plant"}, "geometry": {"type": "Point", "coordinates": [-0.7384522, 51.5782285]}}, {"type": "Feature", "properties": {"name": "Minworth Sewage Treatment Works", "operator": "Severn Trent", "type": "Wastewater Plant"}, "geometry": {"type": "Point", "coordinates": [-1.7550983, 52.5262814]}}, {"type": "Feature", "properties": {"name": "Horwich Wastewater Treatment Works", "operator": "United Utilities", "type": "Wastewater Plant"}, "geometry": {"type": "Point", "coordinates": [-2.5709573, 53.5936034]}}, {"type": "Feature", "properties": {"name": "Rivington Water Treatment Works", "operator": "United Utilities", "type": "Water Works"}, "geometry": {"type": "Point", "coordinates": [-2.5595681, 53.605569]}}, {"type": "Feature", "properties": {"name": "Dereham-Rushmeadow Rd STW", "operator": "Anglian Water", "type": "Wastewater Plant"}, "geometry": {"type": "Point", "coordinates": [0.9222379, 52.6855487]}}, {"type": "Feature", "properties": {"name": "Branscombe STW Branscombe", "operator": "South West Water", "type": "Wastewater Plant"}, "geometry": {"type": "Point", "coordinates": [-3.1258269, 50.689202]}}, {"type": "Feature", "properties": {"name": "Tamworth - Coton Lane (STW)", "operator": "Severn Trent", "type": "Wastewater Plant"}, "geometry": {"type": "Point", "coordinates": [-1.7196043, 52.650583]}}, {"type": "Feature", "properties": {"name": "Maer Lane Sewage Treatment Works", "operator": "South West Water", "type": "Wastewater Plant"}, "geometry": {"type": "Point", "coordinates": [-3.3809351, 50.6151874]}}, {"type": "Feature", "properties": {"name": "Sleet Beck WwTW", "operator": "United Utilities", "type": "Wastewater Plant"}, "geometry": {"type": "Point", "coordinates": [-2.4441829, 53.9583007]}}, {"type": "Feature", "properties": {"name": "Stadhampton Wastewater Treatment Works", "operator": "Thames Water", "type": "Wastewater Plant"}, "geometry": {"type": "Point", "coordinates": [-1.132068, 51.675849]}}, {"type": "Feature", "properties": {"name": "Wilmslow WwTW", "operator": "United Utilities", "type": "Wastewater Plant"}, "geometry": {"type": "Point", "coordinates": [-2.2401756, 53.3380198]}}, {"type": "Feature", "properties": {"name": "Westfield Wastewater Treatment Works", "operator": "Southern Water", "type": "Wastewater Plant"}, "geometry": {"type": "Point", "coordinates": [0.5875267, 50.9093685]}}, {"type": "Feature", "properties": {"name": "Roud WTW", "operator": "Southern Water", "type": "Wastewater Plant"}, "geometry": {"type": "Point", "coordinates": [-1.2742265, 50.6158035]}}, {"type": "Feature", "properties": {"name": "Sunderland Bridge STW", "operator": "Northumbrian Water", "type": "Wastewater Plant"}, "geometry": {"type": "Point", "coordinates": [-1.5916866, 54.7328754]}}, {"type": "Feature", "properties": {"name": "Hayden STW", "operator": "Severn Trent", "type": "Wastewater Plant"}, "geometry": {"type": "Point", "coordinates": [-2.1361737, 51.9053347]}}, {"type": "Feature", "properties": {"name": "Bowburn Sewage Treatment Works", "operator": "Northumbrian Water", "type": "Wastewater Plant"}, "geometry": {"type": "Point", "coordinates": [-1.5327752, 54.7274514]}}, {"type": "Feature", "properties": {"name": "Manningtree Sewage Works", "operator": "Anglian Water", "type": "Wastewater Plant"}, "geometry": {"type": "Point", "coordinates": [1.0518422, 51.9494836]}}, {"type": "Feature", "properties": {"name": "Eign Wastewater Treatment Works", "operator": "D\u0175r Cymru Welsh Water", "type": "Wastewater Plant"}, "geometry": {"type": "Point", "coordinates": [-2.7005623, 52.0450589]}}, {"type": "Feature", "properties": {"name": "Rotherwas Wastewater Treatment Works", "operator": "D\u0175r Cymru Welsh Water", "type": "Wastewater Plant"}, "geometry": {"type": "Point", "coordinates": [-2.6828028, 52.0434475]}}, {"type": "Feature", "properties": {"name": "Mitchell Laithes Waste Water Treatment Works", "operator": "Unknown Operator", "type": "Wastewater Plant"}, "geometry": {"type": "Point", "coordinates": [-1.6060348, 53.6745903]}}, {"type": "Feature", "properties": {"name": "Merlins Bridge Wastewater Treatment Works", "operator": "D\u0175r Cymru - Welsh Water", "type": "Wastewater Plant"}, "geometry": {"type": "Point", "coordinates": [-4.9647732, 51.7932357]}}, {"type": "Feature", "properties": {"name": "Newthorpe (STW)", "operator": "Severn Trent", "type": "Wastewater Plant"}, "geometry": {"type": "Point", "coordinates": [-1.2919658, 52.9984572]}}, {"type": "Feature", "properties": {"name": "Elsfield Wastewater Treatment Works", "operator": "Thames Water", "type": "Wastewater Plant"}, "geometry": {"type": "Point", "coordinates": [-1.22038, 51.7901482]}}, {"type": "Feature", "properties": {"name": "Northumbrian Water Treatment Compound", "operator": "Northumbrian Water", "type": "Wastewater Plant"}, "geometry": {"type": "Point", "coordinates": [-1.2718228, 54.5692782]}}, {"type": "Feature", "properties": {"name": "Northfleet Wastewater Treatment Works", "operator": "Southern Water", "type": "Wastewater Plant"}, "geometry": {"type": "Point", "coordinates": [0.3277412, 51.4377449]}}, {"type": "Feature", "properties": {"name": "Hailsham South Wastewater Treatment Works", "operator": "Southern Water", "type": "Wastewater Plant"}, "geometry": {"type": "Point", "coordinates": [0.2708782, 50.8535929]}}, {"type": "Feature", "properties": {"name": "New Holland Wastewater Treatment Works", "operator": "Northern Ireland Water", "type": "Wastewater Plant"}, "geometry": {"type": "Point", "coordinates": [-6.0187067, 54.5207575]}}, {"type": "Feature", "properties": {"name": "Wilmington water treatment works", "operator": "Thames Water", "type": "Water Works"}, "geometry": {"type": "Point", "coordinates": [0.2191352, 51.4329344]}}, {"type": "Feature", "properties": {"name": "Abingdon Sewage Treatment Works", "operator": "Thames Water", "type": "Wastewater Plant"}, "geometry": {"type": "Point", "coordinates": [-1.2877966, 51.653788]}}, {"type": "Feature", "properties": {"name": "Hallam Fields Sewage Treatment Works", "operator": "Severn Trent", "type": "Wastewater Plant"}, "geometry": {"type": "Point", "coordinates": [-1.2838546, 52.9502029]}}, {"type": "Feature", "properties": {"name": "Northern Ireland Water Headquarters", "operator": "Northern Ireland Water", "type": "Water Works"}, "geometry": {"type": "Point", "coordinates": [-5.9501842, 54.626189]}}, {"type": "Feature", "properties": {"name": "Carrickfergus Waste Water Treatment Works", "operator": "Northern Ireland Water", "type": "Wastewater Plant"}, "geometry": {"type": "Point", "coordinates": [-5.7787099, 54.7243577]}}, {"type": "Feature", "properties": {"name": "Marsh Mills Sewage Treatment Works", "operator": "South West Water", "type": "Wastewater Plant"}, "geometry": {"type": "Point", "coordinates": [-4.0796467, 50.3888046]}}, {"type": "Feature", "properties": {"name": "Cam Valley Sewage Treatment Works", "operator": "Unknown Operator", "type": "Wastewater Plant"}, "geometry": {"type": "Point", "coordinates": [-2.430083, 51.328525]}}, {"type": "Feature", "properties": {"name": "Crownhill Water Treatment Works", "operator": "South West Water", "type": "Water Works"}, "geometry": {"type": "Point", "coordinates": [-4.1274014, 50.4167355]}}, {"type": "Feature", "properties": {"name": "Earlswood Sewage Treatment Works", "operator": "Thames Water", "type": "Wastewater Plant"}, "geometry": {"type": "Point", "coordinates": [-0.1766724, 51.2192762]}}, {"type": "Feature", "properties": {"name": "Ernesettle Sewage Treatment Works", "operator": "South West Water", "type": "Wastewater Plant"}, "geometry": {"type": "Point", "coordinates": [-4.1901698, 50.420079]}}, {"type": "Feature", "properties": {"name": "Stockport STW", "operator": "Unknown Operator", "type": "Wastewater Plant"}, "geometry": {"type": "Point", "coordinates": [-2.2002157, 53.4039412]}}, {"type": "Feature", "properties": {"name": "Nash Sewerage Treatment Works", "operator": "Unknown Operator", "type": "Wastewater Plant"}, "geometry": {"type": "Point", "coordinates": [-2.958533, 51.5502619]}}, {"type": "Feature", "properties": {"name": "Winsford Wastewater Treatment Plant", "operator": "Unknown Operator", "type": "Wastewater Plant"}, "geometry": {"type": "Point", "coordinates": [-2.5243871, 53.2014628]}}, {"type": "Feature", "properties": {"name": "Radford Waste Water Treatment Plant", "operator": "South West Water", "type": "Wastewater Plant"}, "geometry": {"type": "Point", "coordinates": [-4.1056522, 50.3557869]}}, {"type": "Feature", "properties": {"name": "Torpoint STW", "operator": "Unknown Operator", "type": "Wastewater Plant"}, "geometry": {"type": "Point", "coordinates": [-4.2297305, 50.3666205]}}, {"type": "Feature", "properties": {"name": "Wilmslow Water Treatment Plant", "operator": "United Utilities", "type": "Water Works"}, "geometry": {"type": "Point", "coordinates": [-2.226726, 53.3303477]}}, {"type": "Feature", "properties": {"name": "Court Farm Waterworks", "operator": "Unknown Operator", "type": "Water Works"}, "geometry": {"type": "Point", "coordinates": [-2.9582361, 51.6348779]}}, {"type": "Feature", "properties": {"name": "Burstow Wastewater Treatment Works", "operator": "Thames Water", "type": "Wastewater Plant"}, "geometry": {"type": "Point", "coordinates": [-0.1346443, 51.1785122]}}, {"type": "Feature", "properties": {"name": "Esher Sewage Treatment Works", "operator": "Thames Water", "type": "Wastewater Plant"}, "geometry": {"type": "Point", "coordinates": [-0.3721171, 51.3840039]}}, {"type": "Feature", "properties": {"name": "Chichester Wastewater Treatment Plant", "operator": "Southern Water", "type": "Wastewater Plant"}, "geometry": {"type": "Point", "coordinates": [-0.8059076, 50.8281458]}}, {"type": "Feature", "properties": {"name": "River Intake Works", "operator": "Unknown Operator", "type": "Water Works"}, "geometry": {"type": "Point", "coordinates": [-2.7893891, 52.7186819]}}, {"type": "Feature", "properties": {"name": "Sewage Works", "operator": "Unknown Operator", "type": "Wastewater Plant"}, "geometry": {"type": "Point", "coordinates": [-0.4887466, 50.9516276]}}, {"type": "Feature", "properties": {"name": "Sewage Works", "operator": "Unknown Operator", "type": "Wastewater Plant"}, "geometry": {"type": "Point", "coordinates": [-0.4707555, 50.9282913]}}, {"type": "Feature", "properties": {"name": "Chertsey Wastewater Treatment Works", "operator": "Thames Water", "type": "Wastewater Plant"}, "geometry": {"type": "Point", "coordinates": [-0.5412846, 51.3974183]}}, {"type": "Feature", "properties": {"name": "Sewage Works", "operator": "Northern Ireland Water", "type": "Wastewater Plant"}, "geometry": {"type": "Point", "coordinates": [-5.7009254, 54.5606733]}}, {"type": "Feature", "properties": {"name": "Westbury Storridge Valve Station", "operator": "Unknown Operator", "type": "Wastewater Plant"}, "geometry": {"type": "Point", "coordinates": [-2.2166075, 51.2759347]}}, {"type": "Feature", "properties": {"name": "Goscote Sewage Treatment Works", "operator": "Severn Trent", "type": "Wastewater Plant"}, "geometry": {"type": "Point", "coordinates": [-1.9714293, 52.6143143]}}, {"type": "Feature", "properties": {"name": "Cotton Valley Sewage Works", "operator": "Unknown Operator", "type": "Wastewater Plant"}, "geometry": {"type": "Point", "coordinates": [-0.7091771, 52.0580668]}}, {"type": "Feature", "properties": {"name": "Mentmore STW", "operator": "Anglian Water", "type": "Wastewater Plant"}, "geometry": {"type": "Point", "coordinates": [-0.6789295, 51.8677885]}}, {"type": "Feature", "properties": {"name": "Marley Waste Water Treatment Works", "operator": "Unknown Operator", "type": "Wastewater Plant"}, "geometry": {"type": "Point", "coordinates": [-1.8694948, 53.8674743]}}, {"type": "Feature", "properties": {"name": "Blackbirds Sewage Treatment Works", "operator": "Thames Water", "type": "Wastewater Plant"}, "geometry": {"type": "Point", "coordinates": [-0.3421672, 51.6883538]}}, {"type": "Feature", "properties": {"name": "Loftsome Bridge Water Treatment Works", "operator": "Unknown Operator", "type": "Water Works"}, "geometry": {"type": "Point", "coordinates": [-0.9351961, 53.7563868]}}, {"type": "Feature", "properties": {"name": "Stapleford Sewage Treatment Works", "operator": "Severn Trent", "type": "Wastewater Plant"}, "geometry": {"type": "Point", "coordinates": [-1.2763648, 52.918328]}}, {"type": "Feature", "properties": {"name": "Beverley Waste Water Treatment Works", "operator": "Unknown Operator", "type": "Wastewater Plant"}, "geometry": {"type": "Point", "coordinates": [-0.4035713, 53.8378439]}}, {"type": "Feature", "properties": {"name": "Llangoed (Anglesey) WwTW", "operator": "D\u0175r Cymru - Welsh Water", "type": "Wastewater Plant"}, "geometry": {"type": "Point", "coordinates": [-4.0814218, 53.2930044]}}, {"type": "Feature", "properties": {"name": "Brompton - Cross Houses Sewage Treatment Plant", "operator": "Unknown Operator", "type": "Wastewater Plant"}, "geometry": {"type": "Point", "coordinates": [-2.6703458, 52.6693889]}}, {"type": "Feature", "properties": {"name": "Maidenhead WwTW", "operator": "Thames Water", "type": "Wastewater Plant"}, "geometry": {"type": "Point", "coordinates": [-0.7137746, 51.5152515]}}, {"type": "Feature", "properties": {"name": "Bron Ogwen SPS CSO", "operator": "Welsh Water", "type": "Wastewater Plant"}, "geometry": {"type": "Point", "coordinates": [-4.0787084, 53.1849141]}}, {"type": "Feature", "properties": {"name": "Pentraeth STW", "operator": "D\u0175r Cymru - Welsh Water", "type": "Wastewater Plant"}, "geometry": {"type": "Point", "coordinates": [-4.2156701, 53.2854927]}}, {"type": "Feature", "properties": {"name": "College Avenue Water Treatment Works", "operator": "Unknown Operator", "type": "Water Works"}, "geometry": {"type": "Point", "coordinates": [-0.7291397, 51.5241649]}}, {"type": "Feature", "properties": {"name": "Deephams Sewage Treatment Works", "operator": "Thames Water", "type": "Wastewater Plant"}, "geometry": {"type": "Point", "coordinates": [-0.0386653, 51.6244596]}}, {"type": "Feature", "properties": {"name": "Madeley Sewage Treatment Works", "operator": "Unknown Operator", "type": "Wastewater Plant"}, "geometry": {"type": "Point", "coordinates": [-2.3447449, 53.0031733]}}, {"type": "Feature", "properties": {"name": "East Ogwell Waste Water Treatment Works", "operator": "Unknown Operator", "type": "Wastewater Plant"}, "geometry": {"type": "Point", "coordinates": [-3.6383376, 50.5243315]}}, {"type": "Feature", "properties": {"name": "North Bovey Waste Water Treatment Works", "operator": "Unknown Operator", "type": "Wastewater Plant"}, "geometry": {"type": "Point", "coordinates": [-3.7799287, 50.6399184]}}, {"type": "Feature", "properties": {"name": "Shrewsbury - Monkmoor (STW)", "operator": "Severn Trent", "type": "Wastewater Plant"}, "geometry": {"type": "Point", "coordinates": [-2.7120562, 52.7180443]}}, {"type": "Feature", "properties": {"name": "Coleshill (STW)", "operator": "Severn Trent", "type": "Wastewater Plant"}, "geometry": {"type": "Point", "coordinates": [-1.7128269, 52.5201246]}}, {"type": "Feature", "properties": {"name": "Washpool", "operator": "Unknown Operator", "type": "Water Works"}, "geometry": {"type": "Point", "coordinates": [-2.3138281, 51.4226449]}}, {"type": "Feature", "properties": {"name": "Sewage Works", "operator": "Unknown Operator", "type": "Wastewater Plant"}, "geometry": {"type": "Point", "coordinates": [-0.737452, 51.2665194]}}, {"type": "Feature", "properties": {"name": "Greenisland WwTW", "operator": "Northern Ireland Water", "type": "Wastewater Plant"}, "geometry": {"type": "Point", "coordinates": [-5.8436113, 54.7026558]}}, {"type": "Feature", "properties": {"name": "Bran Sands Sewage Treatment Works", "operator": "Northumbrian Water", "type": "Wastewater Plant"}, "geometry": {"type": "Point", "coordinates": [-1.125102, 54.6092642]}}, {"type": "Feature", "properties": {"name": "Freshford Sewage Treatment Plant", "operator": "Unknown Operator", "type": "Wastewater Plant"}, "geometry": {"type": "Point", "coordinates": [-2.3026168, 51.3437042]}}, {"type": "Feature", "properties": {"name": "Westwood Sewage Treatment Works", "operator": "Wessex Water", "type": "Wastewater Plant"}, "geometry": {"type": "Point", "coordinates": [-2.2803689, 51.3264806]}}, {"type": "Feature", "properties": {"name": "Winsley WwTW", "operator": "Wessex Water", "type": "Wastewater Plant"}, "geometry": {"type": "Point", "coordinates": [-2.2916297, 51.338375]}}, {"type": "Feature", "properties": {"name": "Box Wastewater Treament Works", "operator": "Wessex Water", "type": "Wastewater Plant"}, "geometry": {"type": "Point", "coordinates": [-2.255933, 51.4184067]}}, {"type": "Feature", "properties": {"name": "Bovey Cross Water Treatment Works", "operator": "Unknown Operator", "type": "Water Works"}, "geometry": {"type": "Point", "coordinates": [-3.7789852, 50.6489809]}}, {"type": "Feature", "properties": {"name": "Water Works", "operator": "Unknown Operator", "type": "Water Works"}, "geometry": {"type": "Point", "coordinates": [-0.7312196, 51.5518556]}}, {"type": "Feature", "properties": {"name": "White Waltham, White Waltham B STW", "operator": "Thames Water", "type": "Wastewater Plant"}, "geometry": {"type": "Point", "coordinates": [-0.7642315, 51.4922896]}}, {"type": "Feature", "properties": {"name": "Wingrave Wastewater Treatment Works", "operator": "Thames Water", "type": "Wastewater Plant"}, "geometry": {"type": "Point", "coordinates": [-0.7454441, 51.8607151]}}, {"type": "Feature", "properties": {"name": "Whalley STW", "operator": "United Utilities", "type": "Wastewater Plant"}, "geometry": {"type": "Point", "coordinates": [-2.4245339, 53.8225372]}}, {"type": "Feature", "properties": {"name": "Arborfield Wastewater Treatment Works", "operator": "Thames Water", "type": "Wastewater Plant"}, "geometry": {"type": "Point", "coordinates": [-0.8965897, 51.4007223]}}, {"type": "Feature", "properties": {"name": "Seaton Carew Sewage Treatment Works", "operator": "Unknown Operator", "type": "Wastewater Plant"}, "geometry": {"type": "Point", "coordinates": [-1.1972207, 54.6404505]}}, {"type": "Feature", "properties": {"name": "Billington STW", "operator": "United Utilities", "type": "Wastewater Plant"}, "geometry": {"type": "Point", "coordinates": [-2.435472, 53.8211854]}}, {"type": "Feature", "properties": {"name": "Unnamed Wastewater Plant Facility", "operator": "United Utilities", "type": "Wastewater Plant"}, "geometry": {"type": "Point", "coordinates": [-2.4110585, 53.8579844]}}, {"type": "Feature", "properties": {"name": "Little Eaton Water Treatment Works", "operator": "Severn Trent Water", "type": "Water Works"}, "geometry": {"type": "Point", "coordinates": [-1.4586985, 52.9623354]}}, {"type": "Feature", "properties": {"name": "Maple Cross Sewage Treatment Works", "operator": "Thames Water", "type": "Wastewater Plant"}, "geometry": {"type": "Point", "coordinates": [-0.4993418, 51.6189189]}}, {"type": "Feature", "properties": {"name": "Wolston STW", "operator": "Severn Trent", "type": "Wastewater Plant"}, "geometry": {"type": "Point", "coordinates": [-1.4168167, 52.3707919]}}, {"type": "Feature", "properties": {"name": "Selby Water Treatment Works", "operator": "Unknown Operator", "type": "Wastewater Plant"}, "geometry": {"type": "Point", "coordinates": [-1.0387937, 53.7741336]}}, {"type": "Feature", "properties": {"name": "Goole-Rawcliffe Water Treatment Works", "operator": "Unknown Operator", "type": "Wastewater Plant"}, "geometry": {"type": "Point", "coordinates": [-0.9511062, 53.6937034]}}, {"type": "Feature", "properties": {"name": "East Ham Water Treatment Works", "operator": "Thames Water", "type": "Water Works"}, "geometry": {"type": "Point", "coordinates": [0.0711562, 51.5386465]}}, {"type": "Feature", "properties": {"name": "Hambleton Sewage Treatment Works", "operator": "Unknown Operator", "type": "Wastewater Plant"}, "geometry": {"type": "Point", "coordinates": [-1.1487532, 53.776077]}}, {"type": "Feature", "properties": {"name": "Guildford Sewage Treatment Works", "operator": "Thames Water", "type": "Wastewater Plant"}, "geometry": {"type": "Point", "coordinates": [-0.5667105, 51.2552892]}}, {"type": "Feature", "properties": {"name": "Avon Dassett Sewage Treatment Works", "operator": "Thames Water", "type": "Wastewater Plant"}, "geometry": {"type": "Point", "coordinates": [-1.4082841, 52.1413105]}}, {"type": "Feature", "properties": {"name": "Powick (STW)", "operator": "Severn Trent", "type": "Wastewater Plant"}, "geometry": {"type": "Point", "coordinates": [-2.23748, 52.1556466]}}, {"type": "Feature", "properties": {"name": "De Lank Water Works", "operator": "Unknown Operator", "type": "Water Works"}, "geometry": {"type": "Point", "coordinates": [-4.6365586, 50.5595444]}}, {"type": "Feature", "properties": {"name": "Luddington (STW)", "operator": "Severn Trent", "type": "Wastewater Plant"}, "geometry": {"type": "Point", "coordinates": [-0.722952, 53.6413651]}}, {"type": "Feature", "properties": {"name": "Godalming Sewage Treatment Works", "operator": "Thames Water", "type": "Wastewater Plant"}, "geometry": {"type": "Point", "coordinates": [-0.5757782, 51.1991933]}}, {"type": "Feature", "properties": {"name": "Ashlett Creek Fawley WTW", "operator": "Southern Water", "type": "Wastewater Plant"}, "geometry": {"type": "Point", "coordinates": [-1.3400316, 50.8253281]}}, {"type": "Feature", "properties": {"name": "East Bergholt STW", "operator": "Anglian Water", "type": "Wastewater Plant"}, "geometry": {"type": "Point", "coordinates": [1.0185582, 51.9652443]}}, {"type": "Feature", "properties": {"name": "Cantley Sewage Works", "operator": "Anglian Water", "type": "Wastewater Plant"}, "geometry": {"type": "Point", "coordinates": [1.5107055, 52.5752995]}}, {"type": "Feature", "properties": {"name": "Longman Sewerage Pumping Station", "operator": "Unknown Operator", "type": "Wastewater Plant"}, "geometry": {"type": "Point", "coordinates": [-4.2290052, 57.492511]}}, {"type": "Feature", "properties": {"name": "Broome Manor Sewage Farm", "operator": "Unknown Operator", "type": "Wastewater Plant"}, "geometry": {"type": "Point", "coordinates": [-1.7722208, 51.5404644]}}, {"type": "Feature", "properties": {"name": "Ascot Sewage Treatment Works", "operator": "Thames Water", "type": "Wastewater Plant"}, "geometry": {"type": "Point", "coordinates": [-0.7180779, 51.4056437]}}, {"type": "Feature", "properties": {"name": "Wrestlingworth STW", "operator": "Anglian Water", "type": "Wastewater Plant"}, "geometry": {"type": "Point", "coordinates": [-0.1687175, 52.1042552]}}, {"type": "Feature", "properties": {"name": "Fobney Water Treatment Works", "operator": "Thames Water", "type": "Water Works"}, "geometry": {"type": "Point", "coordinates": [-0.9856378, 51.4350448]}}, {"type": "Feature", "properties": {"name": "Westwell WTW", "operator": "Southern Water", "type": "Wastewater Plant"}, "geometry": {"type": "Point", "coordinates": [0.847515, 51.1849292]}}, {"type": "Feature", "properties": {"name": "Paradise Green Pumping Station", "operator": "Unknown Operator", "type": "Water Works"}, "geometry": {"type": "Point", "coordinates": [-1.7966336, 53.7818432]}}, {"type": "Feature", "properties": {"name": "Unnamed Wastewater Plant Facility", "operator": "Anglian Water", "type": "Wastewater Plant"}, "geometry": {"type": "Point", "coordinates": [-0.6706107, 51.9273596]}}, {"type": "Feature", "properties": {"name": "Severn Trent", "operator": "Severn Trent", "type": "Wastewater Plant"}, "geometry": {"type": "Point", "coordinates": [-1.9572889, 52.1008418]}}, {"type": "Feature", "properties": {"name": "Unnamed Water Works Facility", "operator": "Wessex Water", "type": "Water Works"}, "geometry": {"type": "Point", "coordinates": [-2.4104767, 51.3921632]}}, {"type": "Feature", "properties": {"name": "Gillingham Sewage Works", "operator": "Unknown Operator", "type": "Wastewater Plant"}, "geometry": {"type": "Point", "coordinates": [-2.2819465, 51.0321294]}}, {"type": "Feature", "properties": {"name": "Countess Wear Sewage Treatment Works", "operator": "South West Water", "type": "Wastewater Plant"}, "geometry": {"type": "Point", "coordinates": [-3.4904671, 50.6911009]}}, {"type": "Feature", "properties": {"name": "Harvington Works (STW)", "operator": "Severn Trent", "type": "Wastewater Plant"}, "geometry": {"type": "Point", "coordinates": [-1.9145111, 52.1348152]}}, {"type": "Feature", "properties": {"name": "Portswood Wastewater Treatment Works", "operator": "Southern Water", "type": "Wastewater Plant"}, "geometry": {"type": "Point", "coordinates": [-1.3820631, 50.9305347]}}, {"type": "Feature", "properties": {"name": "Stanley Sewage Treatment Works", "operator": "Yorkshire Water", "type": "Wastewater Plant"}, "geometry": {"type": "Point", "coordinates": [-1.4675376, 53.7091791]}}, {"type": "Feature", "properties": {"name": "Barkershaugh sewage treatment works", "operator": "Northumbrian Water", "type": "Wastewater Plant"}, "geometry": {"type": "Point", "coordinates": [-1.5682095, 54.7835417]}}, {"type": "Feature", "properties": {"name": "Uffington WwTW", "operator": "Thames Water", "type": "Wastewater Plant"}, "geometry": {"type": "Point", "coordinates": [-1.5654892, 51.6040864]}}, {"type": "Feature", "properties": {"name": "Haslemere STW", "operator": "Thames Water", "type": "Wastewater Plant"}, "geometry": {"type": "Point", "coordinates": [-0.7459128, 51.0851776]}}, {"type": "Feature", "properties": {"name": "Jaywick New STW", "operator": "Anglian Water", "type": "Wastewater Plant"}, "geometry": {"type": "Point", "coordinates": [1.1036754, 51.7852781]}}, {"type": "Feature", "properties": {"name": "Earl Sterndale Sewage Treatment Plant", "operator": "Severn Trent", "type": "Wastewater Plant"}, "geometry": {"type": "Point", "coordinates": [-1.8702792, 53.2027596]}}, {"type": "Feature", "properties": {"name": "Thetford Sewage Treatment Works", "operator": "Anglian Water", "type": "Wastewater Plant"}, "geometry": {"type": "Point", "coordinates": [0.7265542, 52.4189913]}}, {"type": "Feature", "properties": {"name": "East Stour Sewage Works", "operator": "Unknown Operator", "type": "Wastewater Plant"}, "geometry": {"type": "Point", "coordinates": [-2.2951422, 51.0022566]}}, {"type": "Feature", "properties": {"name": "East Hartford WWTW", "operator": "Unknown Operator", "type": "Wastewater Plant"}, "geometry": {"type": "Point", "coordinates": [-1.5812549, 55.1107432]}}, {"type": "Feature", "properties": {"name": "Shaftesbury Sewage Works", "operator": "Unknown Operator", "type": "Wastewater Plant"}, "geometry": {"type": "Point", "coordinates": [-2.1992506, 50.9926871]}}, {"type": "Feature", "properties": {"name": "Cog Moors Wastewater Treatment Works", "operator": "D\u0175r Cymru - Welsh Water", "type": "Wastewater Plant"}, "geometry": {"type": "Point", "coordinates": [-3.2086165, 51.4190453]}}, {"type": "Feature", "properties": {"name": "WWTW", "operator": "Unknown Operator", "type": "Wastewater Plant"}, "geometry": {"type": "Point", "coordinates": [-1.6608835, 55.3699272]}}, {"type": "Feature", "properties": {"name": "Alnmouth WwTW", "operator": "Northumbrian Water", "type": "Wastewater Plant"}, "geometry": {"type": "Point", "coordinates": [-1.6210194, 55.3963189]}}, {"type": "Feature", "properties": {"name": "Cambois STW", "operator": "Northumbrian Water", "type": "Wastewater Plant"}, "geometry": {"type": "Point", "coordinates": [-1.5401265, 55.156977]}}, {"type": "Feature", "properties": {"name": "Braughing Wastewater Treatment Works", "operator": "Thames Water", "type": "Wastewater Plant"}, "geometry": {"type": "Point", "coordinates": [0.0248292, 51.9227195]}}, {"type": "Feature", "properties": {"name": "Chapmore End Wastewater Treatment Works", "operator": "Thames Water", "type": "Wastewater Plant"}, "geometry": {"type": "Point", "coordinates": [-0.067809, 51.8336934]}}, {"type": "Feature", "properties": {"name": "Ellingham-Braces Lane STW", "operator": "Anglian Water", "type": "Wastewater Plant"}, "geometry": {"type": "Point", "coordinates": [1.4929941, 52.4708302]}}, {"type": "Feature", "properties": {"name": "Hythe WWTW", "operator": "Southern Water", "type": "Wastewater Plant"}, "geometry": {"type": "Point", "coordinates": [1.0332051, 51.0580992]}}, {"type": "Feature", "properties": {"name": "Lydd WTW", "operator": "Southern Water", "type": "Wastewater Plant"}, "geometry": {"type": "Point", "coordinates": [0.8881469, 50.9473093]}}, {"type": "Feature", "properties": {"name": "New Romney Wastewater Treatment Plant", "operator": "Southern Water", "type": "Wastewater Plant"}, "geometry": {"type": "Point", "coordinates": [0.9524238, 50.9780098]}}, {"type": "Feature", "properties": {"name": "Canterbury WTW", "operator": "Southern Water", "type": "Wastewater Plant"}, "geometry": {"type": "Point", "coordinates": [1.1085291, 51.2959034]}}, {"type": "Feature", "properties": {"name": "Wouldham WTW", "operator": "Southern Water", "type": "Wastewater Plant"}, "geometry": {"type": "Point", "coordinates": [0.4573217, 51.3569468]}}, {"type": "Feature", "properties": {"name": "Walkeringham Sewage Treatment Works", "operator": "Severn Trent", "type": "Wastewater Plant"}, "geometry": {"type": "Point", "coordinates": [-0.8310479, 53.428212]}}, {"type": "Feature", "properties": {"name": "Queenborough Water Treatment Works", "operator": "Southern Water", "type": "Wastewater Plant"}, "geometry": {"type": "Point", "coordinates": [0.7424197, 51.4011291]}}, {"type": "Feature", "properties": {"name": "Buntingford Wastewater Treatment Works", "operator": "Thames Water", "type": "Wastewater Plant"}, "geometry": {"type": "Point", "coordinates": [-0.0208591, 51.9393058]}}, {"type": "Feature", "properties": {"name": "Leeds WTW", "operator": "Southern Water", "type": "Wastewater Plant"}, "geometry": {"type": "Point", "coordinates": [0.6111943, 51.2522438]}}, {"type": "Feature", "properties": {"name": "Ben Rhydding Wastewater Treatment Plant", "operator": "Yorkshire Water", "type": "Wastewater Plant"},