{"type": "FeatureCollection", "features": [{"type": "Feature", "properties": {"name": "Next Generation Data", "operator": "Next Generation Data"}, "geometry": {"type": "Point", "coordinates": [-3.0382722, 51.5550188]}}, {"type": "Feature", "properties": {"name": "Redcentric Cambridge", "operator": "Redcentric"}, "geometry": {"type": "Point", "coordinates": [0.1508622, 52.230127]}}, {"type": "Feature", "properties": {"name": "Unknown Data Centre", "operator": "Bank Of America"}, "geometry": {"type": "Point", "coordinates": [-0.7662159, 51.3332585]}}, {"type": "Feature", "properties": {"name": "Serverhouse", "operator": "Serverhouse"}, "geometry": {"type": "Point", "coordinates": [-1.2456113, 50.8678009]}}, {"type": "Feature", "properties": {"name": "Unknown Data Centre", "operator": "Internet Central"}, "geometry": {"type": "Point", "coordinates": [-2.2699405, 53.003893]}}, {"type": "Feature", "properties": {"name": "Brightsolid", "operator": "brightsolid"}, "geometry": {"type": "Point", "coordinates": [-2.1601492, 57.1525691]}}, {"type": "Feature", "properties": {"name": "CityFibre Cabinets", "operator": "CityFibre"}, "geometry": {"type": "Point", "coordinates": [0.6447764, 51.5701871]}}, {"type": "Feature", "properties": {"name": "Insight Data Ltd", "operator": "Unknown Operator"}, "geometry": {"type": "Point", "coordinates": [-2.9105618, 51.3580017]}}, {"type": "Feature", "properties": {"name": "UoS IT Services", "operator": "Unknown Operator"}, "geometry": {"type": "Point", "coordinates": [-1.4850823, 53.3808925]}}, {"type": "Feature", "properties": {"name": "Centerprise International Newport", "operator": "Unknown Operator"}, "geometry": {"type": "Point", "coordinates": [-3.0376928, 51.5556071]}}, {"type": "Feature", "properties": {"name": "Centerprise International (Distribution)", "operator": "Centerprise International"}, "geometry": {"type": "Point", "coordinates": [-3.2290026, 51.6293335]}}, {"type": "Feature", "properties": {"name": "Hive IT", "operator": "Unknown Operator"}, "geometry": {"type": "Point", "coordinates": [-1.4793848, 53.375805]}}, {"type": "Feature", "properties": {"name": "Netwise", "operator": "Unknown Operator"}, "geometry": {"type": "Point", "coordinates": [-0.0009807, 51.5206017]}}, {"type": "Feature", "properties": {"name": "AWS Bracknell Data Centre", "operator": "Amazon Web Services"}, "geometry": {"type": "Point", "coordinates": [-0.7820534, 51.4138607]}}, {"type": "Feature", "properties": {"name": "AWS Swindon Data Centre", "operator": "Amazon Web Services"}, "geometry": {"type": "Point", "coordinates": [-1.7641017, 51.5240279]}}, {"type": "Feature", "properties": {"name": "Unknown Data Centre", "operator": "Lloyds Banking Group"}, "geometry": {"type": "Point", "coordinates": [-3.2939051, 55.9282626]}}, {"type": "Feature", "properties": {"name": "DataVita DV2", "operator": "DataVita"}, "geometry": {"type": "Point", "coordinates": [-4.2651336, 55.8613892]}}, {"type": "Feature", "properties": {"name": "Equinix MA1", "operator": "Equinix"}, "geometry": {"type": "Point", "coordinates": [-2.2363205, 53.4642039]}}, {"type": "Feature", "properties": {"name": "Equinix MA4", "operator": "Equinix"}, "geometry": {"type": "Point", "coordinates": [-2.2377018, 53.4615004]}}, {"type": "Feature", "properties": {"name": "University Shared Data Centre", "operator": "University of Oxford"}, "geometry": {"type": "Point", "coordinates": [-1.2521857, 51.759604]}}, {"type": "Feature", "properties": {"name": "ServerHouse", "operator": "Unknown Operator"}, "geometry": {"type": "Point", "coordinates": [-1.1664407, 50.8482468]}}, {"type": "Feature", "properties": {"name": "Microsoft Ireland", "operator": "Microsoft"}, "geometry": {"type": "Point", "coordinates": [-5.9202218, 54.6047075]}}, {"type": "Feature", "properties": {"name": "Data Vault - Bournemouth BCP01", "operator": "Dark Nebulae Ltd"}, "geometry": {"type": "Point", "coordinates": [-1.8749448, 50.7219006]}}, {"type": "Feature", "properties": {"name": "Unknown Data Centre", "operator": "Pulsant"}, "geometry": {"type": "Point", "coordinates": [-1.3152153, 54.5514292]}}, {"type": "Feature", "properties": {"name": "Sky Chilworth", "operator": "Sky"}, "geometry": {"type": "Point", "coordinates": [-1.4273241, 50.9616793]}}, {"type": "Feature", "properties": {"name": "Digital Realty LHR17", "operator": "Digital Realty"}, "geometry": {"type": "Point", "coordinates": [-0.4603496, 51.4816653]}}, {"type": "Feature", "properties": {"name": "Unknown Data Centre", "operator": "Morgan Stanley"}, "geometry": {"type": "Point", "coordinates": [-0.1359021, 51.3839823]}}, {"type": "Feature", "properties": {"name": "Unknown Data Centre", "operator": "CapitaLand Ascendas REIT"}, "geometry": {"type": "Point", "coordinates": [-0.1374049, 51.3845572]}}, {"type": "Feature", "properties": {"name": "4D Data Centers - Gatwick", "operator": "Unknown Operator"}, "geometry": {"type": "Point", "coordinates": [-0.1758407, 51.1324806]}}, {"type": "Feature", "properties": {"name": "Vantage Data Centers - CWL1", "operator": "Vantage Data Centers"}, "geometry": {"type": "Point", "coordinates": [-3.0373944, 51.5554234]}}, {"type": "Feature", "properties": {"name": "Unknown Data Centre", "operator": "Unknown Operator"}, "geometry": {"type": "Point", "coordinates": [-0.2730223, 51.5292302]}}, {"type": "Feature", "properties": {"name": "Unknown Data Centre", "operator": "Unknown Operator"}, "geometry": {"type": "Point", "coordinates": [-0.2742813, 51.529043]}}, {"type": "Feature", "properties": {"name": "Equinix LD3", "operator": "Equinix"}, "geometry": {"type": "Point", "coordinates": [-0.2778211, 51.528887]}}, {"type": "Feature", "properties": {"name": "Digital Realty LHR13", "operator": "Digital Realty"}, "geometry": {"type": "Point", "coordinates": [-0.2911225, 51.3683288]}}, {"type": "Feature", "properties": {"name": "Astrohouse", "operator": "University of Southampton"}, "geometry": {"type": "Point", "coordinates": [-1.246002, 50.8679793]}}, {"type": "Feature", "properties": {"name": "SCC", "operator": "SCC"}, "geometry": {"type": "Point", "coordinates": [-1.2471827, 50.8683934]}}, {"type": "Feature", "properties": {"name": "Unknown Data Centre", "operator": "OVH"}, "geometry": {"type": "Point", "coordinates": [0.1667209, 51.4915116]}}, {"type": "Feature", "properties": {"name": "Iron Mountain", "operator": "Unknown Operator"}, "geometry": {"type": "Point", "coordinates": [-2.6297586, 53.4148556]}}, {"type": "Feature", "properties": {"name": "The Babbage Centre", "operator": "Getronics"}, "geometry": {"type": "Point", "coordinates": [-2.7340658, 53.3226483]}}, {"type": "Feature", "properties": {"name": "Verne Global London Data Centre", "operator": "Verne Global"}, "geometry": {"type": "Point", "coordinates": [-0.1008144, 51.5235766]}}, {"type": "Feature", "properties": {"name": "Telehouse West", "operator": "Telehouse"}, "geometry": {"type": "Point", "coordinates": [-0.0023135, 51.5111949]}}, {"type": "Feature", "properties": {"name": "Digital Realty LGW14", "operator": "Digital Realty"}, "geometry": {"type": "Point", "coordinates": [-0.5880547, 51.3238402]}}, {"type": "Feature", "properties": {"name": "Pulsant Edinburgh South Gyle SC-1", "operator": "Pulsant"}, "geometry": {"type": "Point", "coordinates": [-3.2938083, 55.9296911]}}, {"type": "Feature", "properties": {"name": "Pulsant Edinburgh South Gyle SC-1", "operator": "Pulsant"}, "geometry": {"type": "Point", "coordinates": [-3.2926708, 55.9298918]}}, {"type": "Feature", "properties": {"name": "LDeX 1", "operator": "LDeX Group"}, "geometry": {"type": "Point", "coordinates": [-0.2308517, 51.568191]}}, {"type": "Feature", "properties": {"name": "Experian", "operator": "Unknown Operator"}, "geometry": {"type": "Point", "coordinates": [-1.1449628, 52.8796234]}}, {"type": "Feature", "properties": {"name": "Stellanor London North", "operator": "Stellanor Data Centers"}, "geometry": {"type": "Point", "coordinates": [-0.1000954, 51.5289786]}}, {"type": "Feature", "properties": {"name": "Morgan Stanley Data Centre", "operator": "Morgan Stanley"}, "geometry": {"type": "Point", "coordinates": [-0.3963834, 51.4666236]}}, {"type": "Feature", "properties": {"name": "Unknown Data Centre", "operator": "Unknown Operator"}, "geometry": {"type": "Point", "coordinates": [-0.2558878, 51.5314309]}}, {"type": "Feature", "properties": {"name": "Pulsant Maidenhead", "operator": "Pulsant"}, "geometry": {"type": "Point", "coordinates": [-0.7082525, 51.5003153]}}, {"type": "Feature", "properties": {"name": "Pulsant Maidenhead", "operator": "Pulsant"}, "geometry": {"type": "Point", "coordinates": [-0.7083993, 51.4996939]}}, {"type": "Feature", "properties": {"name": "Fujitsu Data Centre", "operator": "Unknown Operator"}, "geometry": {"type": "Point", "coordinates": [0.2700957, 51.4811413]}}, {"type": "Feature", "properties": {"name": "Redcentric Byfleet", "operator": "Redcentric"}, "geometry": {"type": "Point", "coordinates": [-0.4799467, 51.3475652]}}, {"type": "Feature", "properties": {"name": "Lunar 1&2", "operator": "Lunar Digital"}, "geometry": {"type": "Point", "coordinates": [-2.2475306, 53.4644923]}}, {"type": "Feature", "properties": {"name": "Edinburgh SC-2", "operator": "Pulsant"}, "geometry": {"type": "Point", "coordinates": [-3.2962233, 55.9257236]}}, {"type": "Feature", "properties": {"name": "Pulsant Reading East", "operator": "Pulsant"}, "geometry": {"type": "Point", "coordinates": [-0.9414155, 51.4569277]}}, {"type": "Feature", "properties": {"name": "Rackspace London Slough (LON3)", "operator": "Rackspace"}, "geometry": {"type": "Point", "coordinates": [-0.6189727, 51.5200864]}}, {"type": "Feature", "properties": {"name": "Logicalis Slough", "operator": "Unknown Operator"}, "geometry": {"type": "Point", "coordinates": [-0.6215649, 51.5205153]}}, {"type": "Feature", "properties": {"name": "Equinix LD5", "operator": "Equinix"}, "geometry": {"type": "Point", "coordinates": [-0.6292251, 51.5220008]}}, {"type": "Feature", "properties": {"name": "Unknown Data Centre", "operator": "Unknown Operator"}, "geometry": {"type": "Point", "coordinates": [-0.2627586, 52.5562036]}}, {"type": "Feature", "properties": {"name": "Unknown Data Centre", "operator": "Unknown Operator"}, "geometry": {"type": "Point", "coordinates": [-0.2639381, 52.5558705]}}, {"type": "Feature", "properties": {"name": "Unknown Data Centre", "operator": "Unknown Operator"}, "geometry": {"type": "Point", "coordinates": [-0.2640718, 52.5562815]}}, {"type": "Feature", "properties": {"name": "Restore Records Management", "operator": "Unknown Operator"}, "geometry": {"type": "Point", "coordinates": [-0.1642598, 51.1989076]}}, {"type": "Feature", "properties": {"name": "Redcentric Reading", "operator": "Redcentric"}, "geometry": {"type": "Point", "coordinates": [-0.975228, 51.4206794]}}, {"type": "Feature", "properties": {"name": "Pulsant", "operator": "Unknown Operator"}, "geometry": {"type": "Point", "coordinates": [-0.9758992, 51.4448808]}}, {"type": "Feature", "properties": {"name": "Colt London North Data Centre", "operator": "Colt"}, "geometry": {"type": "Point", "coordinates": [-0.1835561, 51.799948]}}, {"type": "Feature", "properties": {"name": "Stellanor London East", "operator": "Stellanor Data Centers"}, "geometry": {"type": "Point", "coordinates": [-0.0724737, 51.513946]}}, {"type": "Feature", "properties": {"name": "Datum Datacentres (MCR2)", "operator": "Unknown Operator"}, "geometry": {"type": "Point", "coordinates": [-2.2585178, 53.3786359]}}, {"type": "Feature", "properties": {"name": "RBS Melville Gate Data Centre", "operator": "Natwest Group"}, "geometry": {"type": "Point", "coordinates": [-3.0866159, 55.8942976]}}, {"type": "Feature", "properties": {"name": "Reynoldston Cable Landing Station", "operator": "Cable & Wireless"}, "geometry": {"type": "Point", "coordinates": [-4.1752101, 51.5793621]}}, {"type": "Feature", "properties": {"name": "Brean Cable Landing Station", "operator": "Cable & Wireless"}, "geometry": {"type": "Point", "coordinates": [-3.0131938, 51.2860399]}}, {"type": "Feature", "properties": {"name": "IBM Horsham", "operator": "IBM"}, "geometry": {"type": "Point", "coordinates": [-0.350469, 51.0215574]}}, {"type": "Feature", "properties": {"name": "VocaLink", "operator": "Unknown Operator"}, "geometry": {"type": "Point", "coordinates": [-1.569003, 53.9758144]}}, {"type": "Feature", "properties": {"name": "Ark Data Centres Meridian Park", "operator": "Ark Data Centres"}, "geometry": {"type": "Point", "coordinates": [-0.0414604, 51.6195253]}}, {"type": "Feature", "properties": {"name": "iomart Glasgow Data Centre", "operator": "iomart"}, "geometry": {"type": "Point", "coordinates": [-4.2835487, 55.8511347]}}, {"type": "Feature", "properties": {"name": "Tata Communications Highbridge Datacentre", "operator": "Tata Communications"}, "geometry": {"type": "Point", "coordinates": [-2.9631583, 51.2275256]}}, {"type": "Feature", "properties": {"name": "Lloyds Banking Group Copley", "operator": "Unknown Operator"}, "geometry": {"type": "Point", "coordinates": [-1.8844483, 53.7084325]}}, {"type": "Feature", "properties": {"name": "Serverfarm LON1 \u2013 London Data Center", "operator": "Serverfarm"}, "geometry": {"type": "Point", "coordinates": [-0.4542685, 51.4466633]}}, {"type": "Feature", "properties": {"name": "Global Switch London East", "operator": "Global Switch"}, "geometry": {"type": "Point", "coordinates": [-0.003425, 51.5109396]}}, {"type": "Feature", "properties": {"name": "Unknown Data Centre", "operator": "Unknown Operator"}, "geometry": {"type": "Point", "coordinates": [-4.5535857, 50.8843947]}}, {"type": "Feature", "properties": {"name": "Redcentric London City", "operator": "Redcentric"}, "geometry": {"type": "Point", "coordinates": [-0.0828809, 51.5229321]}}, {"type": "Feature", "properties": {"name": "Nationwide Swindon Technology Centre", "operator": "Nationwide Building Society"}, "geometry": {"type": "Point", "coordinates": [-1.8367418, 51.5722231]}}, {"type": "Feature", "properties": {"name": "Joule House", "operator": "Equinix"}, "geometry": {"type": "Point", "coordinates": [-2.2934202, 53.4680158]}}, {"type": "Feature", "properties": {"name": "Starwood House", "operator": "Tesco"}, "geometry": {"type": "Point", "coordinates": [-0.2068599, 51.9812122]}}, {"type": "Feature", "properties": {"name": "Hertfordshire Data Centre", "operator": "Unknown Operator"}, "geometry": {"type": "Point", "coordinates": [-0.1864269, 51.8078965]}}, {"type": "Feature", "properties": {"name": "Pulsant South London", "operator": "Pulsant"}, "geometry": {"type": "Point", "coordinates": [-0.1195452, 51.3535862]}}, {"type": "Feature", "properties": {"name": "NTT", "operator": "NTT"}, "geometry": {"type": "Point", "coordinates": [-0.4345124, 51.764228]}}, {"type": "Feature", "properties": {"name": "Winterton Cable Landing Station", "operator": "Vodafone"}, "geometry": {"type": "Point", "coordinates": [1.6918148, 52.7181939]}}, {"type": "Feature", "properties": {"name": "Skyways", "operator": "Verizon"}, "geometry": {"type": "Point", "coordinates": [-0.4099656, 51.4595405]}}, {"type": "Feature", "properties": {"name": "Cable & Wireless Data Centre", "operator": "Cable & Wireless"}, "geometry": {"type": "Point", "coordinates": [-0.0091155, 51.502005]}}, {"type": "Feature", "properties": {"name": "British Telecom Computer Centre", "operator": "BT"}, "geometry": {"type": "Point", "coordinates": [-0.4831024, 51.4856166]}}, {"type": "Feature", "properties": {"name": "RBS Data Centre", "operator": "NatWest Group"}, "geometry": {"type": "Point", "coordinates": [-2.9011761, 55.9451623]}}, {"type": "Feature", "properties": {"name": "Digital Realty LHR19", "operator": "Digital Realty"}, "geometry": {"type": "Point", "coordinates": [-0.0188136, 51.4968425]}}, {"type": "Feature", "properties": {"name": "Telehouse South", "operator": "Telehouse"}, "geometry": {"type": "Point", "coordinates": [-0.0034631, 51.5070483]}}, {"type": "Feature", "properties": {"name": "Unknown Data Centre", "operator": "British Airways"}, "geometry": {"type": "Point", "coordinates": [-0.4232704, 51.4713244]}}, {"type": "Feature", "properties": {"name": "Global Switch London North", "operator": "Global Switch"}, "geometry": {"type": "Point", "coordinates": [-0.005573, 51.511119]}}, {"type": "Feature", "properties": {"name": "R89", "operator": "Unknown Operator"}, "geometry": {"type": "Point", "coordinates": [-1.3153016, 51.5740371]}}, {"type": "Feature", "properties": {"name": "DXC Wynyard Data Center", "operator": "HPE"}, "geometry": {"type": "Point", "coordinates": [-1.3100648, 54.633291]}}, {"type": "Feature", "properties": {"name": "Redcentric Elland Data Centre", "operator": "Redcentric"}, "geometry": {"type": "Point", "coordinates": [-1.8214237, 53.6938856]}}, {"type": "Feature", "properties": {"name": "BT Computer Centre", "operator": "Unknown Operator"}, "geometry": {"type": "Point", "coordinates": [-0.3206157, 51.770102]}}, {"type": "Feature", "properties": {"name": "Telehouse North", "operator": "Telehouse"}, "geometry": {"type": "Point", "coordinates": [-0.0019544, 51.512052]}}, {"type": "Feature", "properties": {"name": "Telehouse East", "operator": "Telehouse"}, "geometry": {"type": "Point", "coordinates": [-0.001266, 51.5115297]}}, {"type": "Feature", "properties": {"name": "CyrusOne LON2", "operator": "CyrusOne"}, "geometry": {"type": "Point", "coordinates": [-0.4463277, 51.5027785]}}, {"type": "Feature", "properties": {"name": "Kao Data KLON-05", "operator": "Kao Data"}, "geometry": {"type": "Point", "coordinates": [-0.3639385, 51.5453478]}}, {"type": "Feature", "properties": {"name": "Telefonica Data Centre", "operator": "Telefonica"}, "geometry": {"type": "Point", "coordinates": [-0.6378088, 51.5249468]}}, {"type": "Feature", "properties": {"name": "Equinix LD11x", "operator": "Equinix"}, "geometry": {"type": "Point", "coordinates": [-0.6377381, 51.5230923]}}, {"type": "Feature", "properties": {"name": "Equinix LD4", "operator": "Equinix"}, "geometry": {"type": "Point", "coordinates": [-0.6360736, 51.5234658]}}, {"type": "Feature", "properties": {"name": "Virtus LONDON1", "operator": "Unknown Operator"}, "geometry": {"type": "Point", "coordinates": [-0.0553626, 51.6519012]}}, {"type": "Feature", "properties": {"name": "Edinburgh SC-3", "operator": "Pulsant"}, "geometry": {"type": "Point", "coordinates": [-3.4096908, 55.9293897]}}, {"type": "Feature", "properties": {"name": "Redcentric London West", "operator": "Redcentric"}, "geometry": {"type": "Point", "coordinates": [-0.3974058, 51.468303]}}, {"type": "Feature", "properties": {"name": "nLighten Chester", "operator": "nLighten UK Ltd"}, "geometry": {"type": "Point", "coordinates": [-2.9295354, 53.2452627]}}, {"type": "Feature", "properties": {"name": "Unknown Data Centre", "operator": "Unknown Operator"}, "geometry": {"type": "Point", "coordinates": [-0.0153399, 51.4982057]}}, {"type": "Feature", "properties": {"name": "Unknown Data Centre", "operator": "Unknown Operator"}, "geometry": {"type": "Point", "coordinates": [-0.0144922, 51.4981409]}}, {"type": "Feature", "properties": {"name": "Sky", "operator": "Unknown Operator"}, "geometry": {"type": "Point", "coordinates": [-0.0710402, 51.5173812]}}, {"type": "Feature", "properties": {"name": "IP House London Datacentre", "operator": "IP House"}, "geometry": {"type": "Point", "coordinates": [0.0019607, 51.515406]}}, {"type": "Feature", "properties": {"name": "Digital Realty London LON3", "operator": "Digital Realty"}, "geometry": {"type": "Point", "coordinates": [-0.0731386, 51.5215881]}}, {"type": "Feature", "properties": {"name": "Evoque Data Center Solutions", "operator": "Unknown Operator"}, "geometry": {"type": "Point", "coordinates": [-1.8833659, 52.3121903]}}, {"type": "Feature", "properties": {"name": "Lanis 1 Cable Landing Station", "operator": "Cable & Wireless"}, "geometry": {"type": "Point", "coordinates": [-3.0302309, 53.7765668]}}, {"type": "Feature", "properties": {"name": "West Cambridge Data Centre", "operator": "University of Cambridge"}, "geometry": {"type": "Point", "coordinates": [0.079334, 52.2088956]}}, {"type": "Feature", "properties": {"name": "Skewjack Cable Landing Station", "operator": "Unknown Operator"}, "geometry": {"type": "Point", "coordinates": [-5.67464, 50.0639024]}}, {"type": "Feature", "properties": {"name": "Lands End Cable Landing Station", "operator": "BT"}, "geometry": {"type": "Point", "coordinates": [-5.6718673, 50.0668213]}}, {"type": "Feature", "properties": {"name": "Digital Realty LHR20", "operator": "Digital Realty"}, "geometry": {"type": "Point", "coordinates": [-0.0110653, 51.4998389]}}, {"type": "Feature", "properties": {"name": "Unknown Data Centre", "operator": "Goldman Sachs"}, "geometry": {"type": "Point", "coordinates": [-0.0419907, 51.1354635]}}, {"type": "Feature", "properties": {"name": "Hibernia Southport Cable Landing Station", "operator": "Hibernia Networks"}, "geometry": {"type": "Point", "coordinates": [-2.988063, 53.6265451]}}, {"type": "Feature", "properties": {"name": "Unknown Data Centre", "operator": "Unknown Operator"}, "geometry": {"type": "Point", "coordinates": [-1.3772477, 53.7032569]}}, {"type": "Feature", "properties": {"name": "Six Degrees Data Centre", "operator": "Six Degrees"}, "geometry": {"type": "Point", "coordinates": [0.0300078, 51.4935168]}}, {"type": "Feature", "properties": {"name": "Six Degrees Data Centre", "operator": "Six Degrees"}, "geometry": {"type": "Point", "coordinates": [0.0310638, 51.4937101]}}, {"type": "Feature", "properties": {"name": "Iron Mountain London LON-1", "operator": "Iron Mountain"}, "geometry": {"type": "Point", "coordinates": [-0.6333195, 51.5267957]}}, {"type": "Feature", "properties": {"name": "Unknown Data Centre", "operator": "Unknown Operator"}, "geometry": {"type": "Point", "coordinates": [-1.8848533, 53.7091115]}}, {"type": "Feature", "properties": {"name": "Unknown Data Centre", "operator": "Unknown Operator"}, "geometry": {"type": "Point", "coordinates": [-1.883349, 53.7084196]}}, {"type": "Feature", "properties": {"name": "Cable & Wireless Cable Landing Station", "operator": "Cable & Wireless"}, "geometry": {"type": "Point", "coordinates": [-5.6632114, 50.0559198]}}, {"type": "Feature", "properties": {"name": "Unknown Data Centre", "operator": "Santander"}, "geometry": {"type": "Point", "coordinates": [-1.2089785, 52.5833804]}}, {"type": "Feature", "properties": {"name": "NTT Slough", "operator": "NTT"}, "geometry": {"type": "Point", "coordinates": [-0.6160237, 51.5170188]}}, {"type": "Feature", "properties": {"name": "Digital Realty LHR26", "operator": "Digital Realty"}, "geometry": {"type": "Point", "coordinates": [-0.6179162, 51.516456]}}, {"type": "Feature", "properties": {"name": "Kao Data KLON-06", "operator": "Kao Data"}, "geometry": {"type": "Point", "coordinates": [-0.6162721, 51.51557]}}, {"type": "Feature", "properties": {"name": "Digital Realty LHR27", "operator": "Digital Realty"}, "geometry": {"type": "Point", "coordinates": [-0.6188497, 51.5167148]}}, {"type": "Feature", "properties": {"name": "Whitesands Cable Landing Station", "operator": "Level3 Communications"}, "geometry": {"type": "Point", "coordinates": [-5.6750341, 50.0806326]}}, {"type": "Feature", "properties": {"name": "Unknown Data Centre", "operator": "Verizon"}, "geometry": {"type": "Point", "coordinates": [-5.6847891, 50.0747561]}}, {"type": "Feature", "properties": {"name": "Unknown Data Centre", "operator": "Virgin Media"}, "geometry": {"type": "Point", "coordinates": [-5.6771037, 50.0697925]}}, {"type": "Feature", "properties": {"name": "ESAT 1 Cable Landing Station", "operator": "BT Ireland"}, "geometry": {"type": "Point", "coordinates": [-5.675187, 50.0811692]}}, {"type": "Feature", "properties": {"name": "Level3 Cable Landing Station", "operator": "Lumen Technologies"}, "geometry": {"type": "Point", "coordinates": [-4.5411409, 50.8208817]}}, {"type": "Feature", "properties": {"name": "TAT14 Cable Landing Station", "operator": "BT"}, "geometry": {"type": "Point", "coordinates": [-4.5306872, 50.8198683]}}, {"type": "Feature", "properties": {"name": "Unknown Data Centre", "operator": "Vodafone"}, "geometry": {"type": "Point", "coordinates": [-4.5325627, 50.8208195]}}, {"type": "Feature", "properties": {"name": "Unknown Data Centre", "operator": "Verizon"}, "geometry": {"type": "Point", "coordinates": [-4.5278305, 50.8211577]}}, {"type": "Feature", "properties": {"name": "Unknown Data Centre", "operator": "CapitaLand Ascendas REIT"}, "geometry": {"type": "Point", "coordinates": [-0.7790299, 51.6199]}}, {"type": "Feature", "properties": {"name": "VIRTUS Slough London 3 and 4", "operator": "VIRTUS"}, "geometry": {"type": "Point", "coordinates": [-0.6213452, 51.5228223]}}, {"type": "Feature", "properties": {"name": "UBS Data Centre", "operator": "UBS"}, "geometry": {"type": "Point", "coordinates": [-0.4271464, 51.5067717]}}, {"type": "Feature", "properties": {"name": "Virtus London 10", "operator": "Virtus"}, "geometry": {"type": "Point", "coordinates": [-0.6209389, 51.5214331]}}, {"type": "Feature", "properties": {"name": "Lumen", "operator": "Lumen Technologies"}, "geometry": {"type": "Point", "coordinates": [-0.6171466, 51.5229154]}}, {"type": "Feature", "properties": {"name": "Unknown Data Centre", "operator": "Unknown Operator"}, "geometry": {"type": "Point", "coordinates": [-0.2558966, 51.5300072]}}, {"type": "Feature", "properties": {"name": "Pulsant Milton Keynes SE-1", "operator": "Pulsant"}, "geometry": {"type": "Point", "coordinates": [-0.7553817, 52.0550736]}}, {"type": "Feature", "properties": {"name": "Unknown Data Centre", "operator": "Unknown Operator"}, "geometry": {"type": "Point", "coordinates": [-0.7572426, 52.0546866]}}, {"type": "Feature", "properties": {"name": "Venture West", "operator": "The Bunker Secure Hosting Ltd"}, "geometry": {"type": "Point", "coordinates": [-1.2904722, 51.3770297]}}, {"type": "Feature", "properties": {"name": "The Bunker - South East Data Centre", "operator": "Cyberfort"}, "geometry": {"type": "Point", "coordinates": [1.2963278, 51.271195]}}, {"type": "Feature", "properties": {"name": "Unit 1", "operator": "Galaxy Data Centers"}, "geometry": {"type": "Point", "coordinates": [-0.1596895, 51.2477532]}}, {"type": "Feature", "properties": {"name": "Unit 3", "operator": "Galaxy Data Centers"}, "geometry": {"type": "Point", "coordinates": [-0.1572905, 51.2479408]}}, {"type": "Feature", "properties": {"name": "Unit 2", "operator": "Galaxy Data Centers"}, "geometry": {"type": "Point", "coordinates": [-0.1586246, 51.2476379]}}, {"type": "Feature", "properties": {"name": "The Chess Building", "operator": "CapitaLand Ascendas REIT"}, "geometry": {"type": "Point", "coordinates": [-0.4276473, 51.6428492]}}, {"type": "Feature", "properties": {"name": "Imperium 315", "operator": "NYSE Euronext"}, "geometry": {"type": "Point", "coordinates": [0.4848784, 51.5866746]}}, {"type": "Feature", "properties": {"name": "DataVita DV1", "operator": "DataVita"}, "geometry": {"type": "Point", "coordinates": [-3.9525146, 55.8344313]}}, {"type": "Feature", "properties": {"name": "Telehouse North Two", "operator": "Telehouse"}, "geometry": {"type": "Point", "coordinates": [-0.0005474, 51.5121049]}}, {"type": "Feature", "properties": {"name": "The Horizon Centre", "operator": "Unknown Operator"}, "geometry": {"type": "Point", "coordinates": [-0.645899, 52.516024]}}, {"type": "Feature", "properties": {"name": "DXC Technology", "operator": "Unknown Operator"}, "geometry": {"type": "Point", "coordinates": [-2.4858019, 51.8715292]}}, {"type": "Feature", "properties": {"name": "Unknown Data Centre", "operator": "Unknown Operator"}, "geometry": {"type": "Point", "coordinates": [-0.5013188, 51.8977355]}}, {"type": "Feature", "properties": {"name": "Ark Data Centres", "operator": "Ark Data Centres"}, "geometry": {"type": "Point", "coordinates": [-2.2185032, 51.4187452]}}, {"type": "Feature", "properties": {"name": "Ark Data Centres", "operator": "Ark Data Centres"}, "geometry": {"type": "Point", "coordinates": [-2.2205758, 51.4183627]}}, {"type": "Feature", "properties": {"name": "Ark Data Centres", "operator": "Ark Data Centres"}, "geometry": {"type": "Point", "coordinates": [-2.22305, 51.4184644]}}, {"type": "Feature", "properties": {"name": "Digital Realty LGW16", "operator": "Digital Realty"}, "geometry": {"type": "Point", "coordinates": [-0.176786, 51.12907]}}, {"type": "Feature", "properties": {"name": "Hellermann Tyton Data", "operator": "Unknown Operator"}, "geometry": {"type": "Point", "coordinates": [-0.919028, 52.234194]}}, {"type": "Feature", "properties": {"name": "CDL Strata Campus Data Centre", "operator": "Unknown Operator"}, "geometry": {"type": "Point", "coordinates": [-2.1790008, 53.4082158]}}, {"type": "Feature", "properties": {"name": "Unknown Data Centre", "operator": "Unknown Operator"}, "geometry": {"type": "Point", "coordinates": [-0.6245867, 51.5222507]}}, {"type": "Feature", "properties": {"name": "CyrusOne London 1", "operator": "CyrusOne"}, "geometry": {"type": "Point", "coordinates": [-0.6239391, 51.523045]}}, {"type": "Feature", "properties": {"name": "Kao Data KLON-01", "operator": "Kao Data"}, "geometry": {"type": "Point", "coordinates": [0.1292881, 51.7691716]}}, {"type": "Feature", "properties": {"name": "Equinix LD10", "operator": "Equinix"}, "geometry": {"type": "Point", "coordinates": [-0.6246734, 51.5222992]}}, {"type": "Feature", "properties": {"name": "Digital Realty LGW15", "operator": "Digital Realty"}, "geometry": {"type": "Point", "coordinates": [-0.1761628, 51.1274257]}}, {"type": "Feature", "properties": {"name": "Unknown Data Centre", "operator": "Unknown Operator"}, "geometry": {"type": "Point", "coordinates": [-2.1768304, 53.4683964]}}, {"type": "Feature", "properties": {"name": "Equinix LD12", "operator": "Equinix"}, "geometry": {"type": "Point", "coordinates": [-0.63761, 51.5239361]}}, {"type": "Feature", "properties": {"name": "CyrusOne LON3", "operator": "CyrusOne"}, "geometry": {"type": "Point", "coordinates": [-0.6269396, 51.525944]}}, {"type": "Feature", "properties": {"name": "Virtus London 3", "operator": "Virtus"}, "geometry": {"type": "Point", "coordinates": [-0.621693, 51.5220534]}}, {"type": "Feature", "properties": {"name": "Virtus London6", "operator": "Virtus"}, "geometry": {"type": "Point", "coordinates": [-0.4538102, 51.5105687]}}, {"type": "Feature", "properties": {"name": "Virtus London5", "operator": "Virtus"}, "geometry": {"type": "Point", "coordinates": [-0.4542871, 51.5095441]}}, {"type": "Feature", "properties": {"name": "Virtus London7", "operator": "Virtus"}, "geometry": {"type": "Point", "coordinates": [-0.4566535, 51.5108817]}}, {"type": "Feature", "properties": {"name": "Unknown Data Centre", "operator": "Options Technology Ltd."}, "geometry": {"type": "Point", "coordinates": [-0.2608292, 51.5347469]}}, {"type": "Feature", "properties": {"name": "Unknown Data Centre", "operator": "Unknown Operator"}, "geometry": {"type": "Point", "coordinates": [-0.257339, 51.5312555]}}, {"type": "Feature", "properties": {"name": "Equinix LD9", "operator": "Equinix"}, "geometry": {"type": "Point", "coordinates": [-0.2576058, 51.5319396]}}, {"type": "Feature", "properties": {"name": "Unknown Data Centre", "operator": "Unknown Operator"}, "geometry": {"type": "Point", "coordinates": [-1.3811263, 52.5409438]}}, {"type": "Feature", "properties": {"name": "Equinix LD6", "operator": "Equinix"}, "geometry": {"type": "Point", "coordinates": [-0.6352072, 51.5245814]}}, {"type": "Feature", "properties": {"name": "VIRTUS LONDON2", "operator": "VIRTUS"}, "geometry": {"type": "Point", "coordinates": [-0.4045035, 51.4964027]}}, {"type": "Feature", "properties": {"name": "Surrey Data Park", "operator": "Unknown Operator"}, "geometry": {"type": "Point", "coordinates": [-0.6019958, 51.1864311]}}, {"type": "Feature", "properties": {"name": "Delta House", "operator": "TeleData"}, "geometry": {"type": "Point", "coordinates": [-2.2586128, 53.3791499]}}, {"type": "Feature", "properties": {"name": "CXD Infrastructure Solutions", "operator": "DXC UKI"}, "geometry": {"type": "Point", "coordinates": [0.5472057, 51.2788289]}}, {"type": "Feature", "properties": {"name": "CGI Datacenter", "operator": "CGI"}, "geometry": {"type": "Point", "coordinates": [-3.58071, 51.4918316]}}, {"type": "Feature", "properties": {"name": "Equinix LD7", "operator": "Equinix"}, "geometry": {"type": "Point", "coordinates": [-0.634531, 51.5255429]}}, {"type": "Feature", "properties": {"name": "China Mobile Slough", "operator": "Unknown Operator"}, "geometry": {"type": "Point", "coordinates": [-0.6282758, 51.5194824]}}, {"type": "Feature", "properties": {"name": "Stellium Newcastle Campus", "operator": "Unknown Operator"}, "geometry": {"type": "Point", "coordinates": [-1.5039339, 55.0171282]}}, {"type": "Feature", "properties": {"name": "CryrusOne LON4", "operator": "CyrusOne"}, "geometry": {"type": "Point", "coordinates": [-0.6289481, 51.5165511]}}, {"type": "Feature", "properties": {"name": "VIRTUS LONDON9", "operator": "Unknown Operator"}, "geometry": {"type": "Point", "coordinates": [-0.6189915, 51.5188766]}}, {"type": "Feature", "properties": {"name": "Google Datacentre Waltham Cross", "operator": "Google"}, "geometry": {"type": "Point", "coordinates": [-0.0488561, 51.6961913]}}, {"type": "Feature", "properties": {"name": "Prescient Coleraine", "operator": "Unknown Operator"}, "geometry": {"type": "Point", "coordinates": [-6.6854864, 55.1534451]}}, {"type": "Feature", "properties": {"name": "NTT London 1", "operator": "NTT"}, "geometry": {"type": "Point", "coordinates": [0.1757476, 51.5474545]}}, {"type": "Feature", "properties": {"name": "Unknown Data Centre", "operator": "Santander"}, "geometry": {"type": "Point", "coordinates": [-1.2100338, 52.578887]}}, {"type": "Feature", "properties": {"name": "Unknown Data Centre", "operator": "Santander"}, "geometry": {"type": "Point", "coordinates": [-1.2062397, 52.5796263]}}, {"type": "Feature", "properties": {"name": "Unknown Data Centre", "operator": "Ark Data Centres"}, "geometry": {"type": "Point", "coordinates": [-0.7972979, 51.2817675]}}, {"type": "Feature", "properties": {"name": "Unknown Data Centre", "operator": "Ark Data Centres"}, "geometry": {"type": "Point", "coordinates": [-0.7961314, 51.2824757]}}, {"type": "Feature", "properties": {"name": "Unknown Data Centre", "operator": "Ark Data Centres"}, "geometry": {"type": "Point", "coordinates": [-0.7957685, 51.2821]}}, {"type": "Feature", "properties": {"name": "Unknown Data Centre", "operator": "Ark Data Centres"}, "geometry": {"type": "Point", "coordinates": [-0.7954006, 51.2817263]}}, {"type": "Feature", "properties": {"name": "Unknown Data Centre", "operator": "Ark Data Centres"}, "geometry": {"type": "Point", "coordinates": [-0.7945139, 51.2824377]}}, {"type": "Feature", "properties": {"name": "Virtus London8", "operator": "Virtus"}, "geometry": {"type": "Point", "coordinates": [-0.4571888, 51.5097605]}}, {"type": "Feature", "properties": {"name": "Positive Park", "operator": "Positive Internet"}, "geometry": {"type": "Point", "coordinates": [0.0565064, 52.5837453]}}, {"type": "Feature", "properties": {"name": "nLighten Edge Data Centre Liverpool", "operator": "Unknown Operator"}, "geometry": {"type": "Point", "coordinates": [-2.9733309, 53.3433136]}}, {"type": "Feature", "properties": {"name": "Regit4u", "operator": "Unknown Operator"}, "geometry": {"type": "Point", "coordinates": [-1.2500233, 50.9067432]}}, {"type": "Feature", "properties": {"name": "Evolution @ Agecroft Commerce Park", "operator": "Unknown Operator"}, "geometry": {"type": "Point", "coordinates": [-2.3049271, 53.5077832]}}, {"type": "Feature", "properties": {"name": "Evolution @ Agecroft Commerce Park", "operator": "Unknown Operator"}, "geometry": {"type": "Point", "coordinates": [-2.3045891, 53.5062901]}}, {"type": "Feature", "properties": {"name": "CryrusOne LON5", "operator": "CyrusOne"}, "geometry": {"type": "Point", "coordinates": [-0.6270685, 51.515931]}}, {"type": "Feature", "properties": {"name": "Unknown Data Centre", "operator": "Unknown Operator"}, "geometry": {"type": "Point", "coordinates": [-0.4292808, 51.7572082]}}, {"type": "Feature", "properties": {"name": "Unknown Data Centre", "operator": "Unknown Operator"}, "geometry": {"type": "Point", "coordinates": [-2.2194847, 51.4174316]}}, {"type": "Feature", "properties": {"name": "Unknown Data Centre", "operator": "Unknown Operator"}, "geometry": {"type": "Point", "coordinates": [-2.2197302, 51.4177591]}}, {"type": "Feature", "properties": {"name": "Virtual Internet UK", "operator": "Unknown Operator"}, "geometry": {"type": "Point", "coordinates": [0.0233541, 51.5166504]}}, {"type": "Feature", "properties": {"name": "Unknown Data Centre", "operator": "Ionos"}, "geometry": {"type": "Point", "coordinates": [-2.1566924, 52.2058954]}}, {"type": "Feature", "properties": {"name": "Unknown Data Centre", "operator": "Unknown Operator"}, "geometry": {"type": "Point", "coordinates": [-1.0320237, 54.5917636]}}, {"type": "Feature", "properties": {"name": "AWS Swindon Data Centre", "operator": "Amazon Web Services"}, "geometry": {"type": "Point", "coordinates": [-1.7643629, 51.5240125]}}, {"type": "Feature", "properties": {"name": "Unknown Data Centre", "operator": "Lumen Technologies"}, "geometry": {"type": "Point", "coordinates": [-1.2350678, 54.5785009]}}, {"type": "Feature", "properties": {"name": "Amazon Web Services", "operator": "Amazon Web Services"}, "geometry": {"type": "Point", "coordinates": [-0.7819399, 51.4138567]}}, {"type": "Feature", "properties": {"name": "Unknown Data Centre", "operator": "Unknown Operator"}, "geometry": {"type": "Point", "coordinates": [-0.7981341, 51.2807055]}}, {"type": "Feature", "properties": {"name": "Vantage Data Centers - CWL13", "operator": "Vantage Data Centers"}, "geometry": {"type": "Point", "coordinates": [-3.0327479, 51.554789]}}, {"type": "Feature", "properties": {"name": "Microsoft Newport data centre", "operator": "Microsoft"}, "geometry": {"type": "Point", "coordinates": [-3.0404591, 51.5509775]}}, {"type": "Feature", "properties": {"name": "Unknown Data Centre", "operator": "Unknown Operator"}, "geometry": {"type": "Point", "coordinates": [-0.818456, 51.8879741]}}, {"type": "Feature", "properties": {"name": "AWS Didcot Data Centre", "operator": "Amazon Web Services"}, "geometry": {"type": "Point", "coordinates": [-1.2615655, 51.6173524]}}, {"type": "Feature", "properties": {"name": "Hutchison 3G", "operator": "Unknown Operator"}, "geometry": {"type": "Point", "coordinates": [-2.0305574, 52.5473033]}}, {"type": "Feature", "properties": {"name": "Unknown Data Centre", "operator": "US Air Force"}, "geometry": {"type": "Point", "coordinates": [0.5502103, 52.3988688]}}, {"type": "Feature", "properties": {"name": "Kao Data KLON-02", "operator": "Kao Data"}, "geometry": {"type": "Point", "coordinates": [0.1293794, 51.7701046]}}, {"type": "Feature", "properties": {"name": "VIRTUS London 11", "operator": "Unknown Operator"}, "geometry": {"type": "Point", "coordinates": [-0.626252, 51.5189576]}}, {"type": "Feature", "properties": {"name": "Tata Stratford", "operator": "Tata Communications"}, "geometry": {"type": "Point", "coordinates": [0.0025166, 51.5424593]}}, {"type": "Feature", "properties": {"name": "EE Data Centre", "operator": "Unknown Operator"}, "geometry": {"type": "Point", "coordinates": [-2.0210407, 52.5297368]}}, {"type": "Feature", "properties": {"name": "Longcross Park", "operator": "Ark Data Centres"}, "geometry": {"type": "Point", "coordinates": [-0.5946346, 51.3805356]}}, {"type": "Feature", "properties": {"name": "Equinix LD8", "operator": "Equinix"}, "geometry": {"type": "Point", "coordinates": [-0.0148988, 51.4981784]}}, {"type": "Feature", "properties": {"name": "Digital Realty LHR18", "operator": "Unknown Operator"}, "geometry": {"type": "Point", "coordinates": [-0.0865103, 51.5242569]}}, {"type": "Feature", "properties": {"name": "Global Technical Realty London GB One", "operator": "Global Technical Realty"}, "geometry": {"type": "Point", "coordinates": [-0.6183615, 51.5176697]}}, {"type": "Feature", "properties": {"name": "Datum Farnborough Data Centre", "operator": "Datum"}, "geometry": {"type": "Point", "coordinates": [-0.7960565, 51.2805849]}}, {"type": "Feature", "properties": {"name": "Pulsant Edinburgh SC-1", "operator": "Unknown Operator"}, "geometry": {"type": "Point", "coordinates": [-3.2933933, 55.9297598]}}]}