{"type": "FeatureCollection", "features": [{"type": "Feature", "properties": {"name": "Hartlepool Nuclear Power Station", "operator": "EDF Energy", "source": "nuclear"}, "geometry": {"type": "Point", "coordinates": [-1.1812918, 54.6351559]}}, {"type": "Feature", "properties": {"name": "Seabank Power Station", "operator": "SSE Thermal", "source": "gas"}, "geometry": {"type": "Point", "coordinates": [-2.670294, 51.5391657]}}, {"type": "Feature", "properties": {"name": "Pembroke Power Station", "operator": "RWE", "source": "gas"}, "geometry": {"type": "Point", "coordinates": [-4.9932894, 51.683569]}}, {"type": "Feature", "properties": {"name": "Greenwich Peninsula Energy Centre", "operator": "Pinnacle Power", "source": "gas"}, "geometry": {"type": "Point", "coordinates": [0.0078397, 51.4939542]}}, {"type": "Feature", "properties": {"name": "Connahs Quay Power Station", "operator": "Uniper", "source": "gas"}, "geometry": {"type": "Point", "coordinates": [-3.0838389, 53.2329472]}}, {"type": "Feature", "properties": {"name": "Sizewell B Nuclear Power Station", "operator": "EDF Energy", "source": "nuclear"}, "geometry": {"type": "Point", "coordinates": [1.6188936, 52.2143975]}}, {"type": "Feature", "properties": {"name": "King's Lynn Power Station", "operator": "Unknown Operator", "source": "gas"}, "geometry": {"type": "Point", "coordinates": [0.3799039, 52.7274471]}}, {"type": "Feature", "properties": {"name": "Rocksavage Power Station", "operator": "InterGen", "source": "gas"}, "geometry": {"type": "Point", "coordinates": [-2.7233649, 53.3151869]}}, {"type": "Feature", "properties": {"name": "Little Barford Power Station", "operator": "Unknown Operator", "source": "gas"}, "geometry": {"type": "Point", "coordinates": [-0.2673933, 52.2043235]}}, {"type": "Feature", "properties": {"name": "Ballylumford Power Station", "operator": "EP UK Investments", "source": "gas"}, "geometry": {"type": "Point", "coordinates": [-5.7829458, 54.8452254]}}, {"type": "Feature", "properties": {"name": "Kilroot Power Station", "operator": "EP UK Investments", "source": "gas"}, "geometry": {"type": "Point", "coordinates": [-5.7654406, 54.7270733]}}, {"type": "Feature", "properties": {"name": "Sutton Bridge Power Station", "operator": "Unknown Operator", "source": "gas"}, "geometry": {"type": "Point", "coordinates": [0.1919961, 52.7570674]}}, {"type": "Feature", "properties": {"name": "Rye House Power Station", "operator": "Drax Group", "source": "gas"}, "geometry": {"type": "Point", "coordinates": [0.009124, 51.7629592]}}, {"type": "Feature", "properties": {"name": "Keadby 2 Power Station", "operator": "Unknown Operator", "source": "gas"}, "geometry": {"type": "Point", "coordinates": [-0.7523798, 53.5948748]}}, {"type": "Feature", "properties": {"name": "Carrington Power Station", "operator": "Unknown Operator", "source": "gas"}, "geometry": {"type": "Point", "coordinates": [-2.4103201, 53.437401]}}, {"type": "Feature", "properties": {"name": "Broad Street City Centre Energy Network CHP", "operator": "Utilicom", "source": "gas"}, "geometry": {"type": "Point", "coordinates": [-1.9125629, 52.4790986]}}, {"type": "Feature", "properties": {"name": "Torness Nuclear Power Station", "operator": "EDF Energy", "source": "nuclear"}, "geometry": {"type": "Point", "coordinates": [-2.4088084, 55.9683842]}}, {"type": "Feature", "properties": {"name": "Heartlands Power Station", "operator": "Unknown Operator", "source": "gas"}, "geometry": {"type": "Point", "coordinates": [-1.8086216, 52.5101564]}}, {"type": "Feature", "properties": {"name": "Corby Power Station", "operator": "Unknown Operator", "source": "gas"}, "geometry": {"type": "Point", "coordinates": [-0.6812503, 52.5104776]}}, {"type": "Feature", "properties": {"name": "Peterhead Power Station", "operator": "SSE Thermal", "source": "gas"}, "geometry": {"type": "Point", "coordinates": [-1.7881844, 57.4779207]}}, {"type": "Feature", "properties": {"name": "Indian Queens Power Station", "operator": "Unknown Operator", "source": "gas"}, "geometry": {"type": "Point", "coordinates": [-4.8996428, 50.3959441]}}, {"type": "Feature", "properties": {"name": "Spalding Power Station", "operator": "Intergen", "source": "gas"}, "geometry": {"type": "Point", "coordinates": [-0.132816, 52.8064292]}}, {"type": "Feature", "properties": {"name": "Coolkeeragh Power Station", "operator": "Coolkeeragh ESB Limited", "source": "gas"}, "geometry": {"type": "Point", "coordinates": [-7.2479577, 55.0430568]}}, {"type": "Feature", "properties": {"name": "Medway Power Station", "operator": "SSE Thermal", "source": "gas"}, "geometry": {"type": "Point", "coordinates": [0.6901529, 51.4402962]}}, {"type": "Feature", "properties": {"name": "West Burton B Power Station", "operator": "TotalEnergies", "source": "gas"}, "geometry": {"type": "Point", "coordinates": [-0.7974485, 53.3640329]}}, {"type": "Feature", "properties": {"name": "Bunhill Energy Centre", "operator": "Unknown Operator", "source": "gas"}, "geometry": {"type": "Point", "coordinates": [-0.0960037, 51.5254801]}}, {"type": "Feature", "properties": {"name": "Langage Power Station", "operator": "Unknown Operator", "source": "gas"}, "geometry": {"type": "Point", "coordinates": [-4.0115407, 50.3884441]}}, {"type": "Feature", "properties": {"name": "Mucking Gas 2 Landfill Scheme", "operator": "Energy Developments (UK) Ltd", "source": "gas"}, "geometry": {"type": "Point", "coordinates": [0.4251207, 51.4941263]}}, {"type": "Feature", "properties": {"name": "Great Yarmouth Power Station", "operator": "Unknown Operator", "source": "gas"}, "geometry": {"type": "Point", "coordinates": [1.7332441, 52.5849484]}}, {"type": "Feature", "properties": {"name": "Marchwood Power Station", "operator": "SSE Thermal", "source": "gas"}, "geometry": {"type": "Point", "coordinates": [-1.4378112, 50.8978881]}}, {"type": "Feature", "properties": {"name": "South Humber Bank Power Station", "operator": "Unknown Operator", "source": "gas"}, "geometry": {"type": "Point", "coordinates": [-0.1455792, 53.6012427]}}, {"type": "Feature", "properties": {"name": "Killingholme B Power Station", "operator": "Unknown Operator", "source": "gas"}, "geometry": {"type": "Point", "coordinates": [-0.2554398, 53.6541491]}}, {"type": "Feature", "properties": {"name": "Glanford Brigg Power Station", "operator": "Centrica", "source": "gas"}, "geometry": {"type": "Point", "coordinates": [-0.5044551, 53.5417671]}}, {"type": "Feature", "properties": {"name": "Immingham Power Station", "operator": "Unknown Operator", "source": "gas"}, "geometry": {"type": "Point", "coordinates": [-0.2356975, 53.6379721]}}, {"type": "Feature", "properties": {"name": "Codford Biogas", "operator": "Unknown Operator", "source": "gas"}, "geometry": {"type": "Point", "coordinates": [-2.0150979, 51.1720786]}}, {"type": "Feature", "properties": {"name": "Staythorpe C Power Station", "operator": "RWE", "source": "gas"}, "geometry": {"type": "Point", "coordinates": [-0.8597603, 53.0726348]}}, {"type": "Feature", "properties": {"name": "AstraZeneca Macclesfield CHP", "operator": "Veolia UK", "source": "gas"}, "geometry": {"type": "Point", "coordinates": [-2.1102131, 53.2755433]}}, {"type": "Feature", "properties": {"name": "ExCeL District Energy Centre", "operator": "Engie", "source": "gas"}, "geometry": {"type": "Point", "coordinates": [0.0229623, 51.5088746]}}, {"type": "Feature", "properties": {"name": "Enfield Power Station", "operator": "Unknown Operator", "source": "gas"}, "geometry": {"type": "Point", "coordinates": [-0.0222964, 51.6629796]}}, {"type": "Feature", "properties": {"name": "Unknown Gas Plant", "operator": "Unknown Operator", "source": "gas"}, "geometry": {"type": "Point", "coordinates": [-2.1079608, 51.4675349]}}, {"type": "Feature", "properties": {"name": "Heysham Nuclear Power Station", "operator": "EDF Energy", "source": "nuclear"}, "geometry": {"type": "Point", "coordinates": [-2.9170944, 54.0287139]}}, {"type": "Feature", "properties": {"name": "Saltend Power Station", "operator": "Unknown Operator", "source": "gas"}, "geometry": {"type": "Point", "coordinates": [-0.2429463, 53.73416]}}, {"type": "Feature", "properties": {"name": "Kestral Road", "operator": "Durham RP Limited", "source": "gas"}, "geometry": {"type": "Point", "coordinates": [-1.2153824, 53.1308074]}}, {"type": "Feature", "properties": {"name": "Taylors Lane Power Station", "operator": "Unknown Operator", "source": "gas"}, "geometry": {"type": "Point", "coordinates": [-0.2575807, 51.5460054]}}, {"type": "Feature", "properties": {"name": "Gedling Energy Park", "operator": "Alkane Energy", "source": "gas"}, "geometry": {"type": "Point", "coordinates": [-1.0900849, 52.9891623]}}, {"type": "Feature", "properties": {"name": "Shoreham Power Station", "operator": "Unknown Operator", "source": "gas"}, "geometry": {"type": "Point", "coordinates": [-0.2306078, 50.8297485]}}, {"type": "Feature", "properties": {"name": "Tillydrone Energy Centre", "operator": "Aberdeen Heat & Power Ltd", "source": "gas"}, "geometry": {"type": "Point", "coordinates": [-2.1180743, 57.1731212]}}, {"type": "Feature", "properties": {"name": "Winnington Brunner CHP", "operator": "E.ON", "source": "gas"}, "geometry": {"type": "Point", "coordinates": [-2.5309761, 53.266939]}}, {"type": "Feature", "properties": {"name": "Cottam Development Centre", "operator": "E.ON", "source": "gas"}, "geometry": {"type": "Point", "coordinates": [-0.7859766, 53.3062664]}}, {"type": "Feature", "properties": {"name": "Fulton Building CHP", "operator": "Dundee University", "source": "gas"}, "geometry": {"type": "Point", "coordinates": [-2.9799072, 56.4588526]}}, {"type": "Feature", "properties": {"name": "Knockmore Hill Combined Heat and Power", "operator": "ContourGlobal", "source": "gas"}, "geometry": {"type": "Point", "coordinates": [-6.0905873, 54.5082852]}}, {"type": "Feature", "properties": {"name": "Kings Road Power Station", "operator": "Unknown Operator", "source": "gas"}, "geometry": {"type": "Point", "coordinates": [-0.1930624, 53.6155715]}}, {"type": "Feature", "properties": {"name": "Shirebrook Energy Park", "operator": "Infinis", "source": "gas"}, "geometry": {"type": "Point", "coordinates": [-1.2101619, 53.1994998]}}, {"type": "Feature", "properties": {"name": "Pimlico District Heating Undertaking", "operator": "Unknown Operator", "source": "gas"}, "geometry": {"type": "Point", "coordinates": [-0.1402133, 51.4856998]}}, {"type": "Feature", "properties": {"name": "Citigen Charterhouse Street CHP", "operator": "E.ON", "source": "gas"}, "geometry": {"type": "Point", "coordinates": [-0.1042416, 51.5192111]}}, {"type": "Feature", "properties": {"name": "Cynon Power", "operator": "Cynon Power Limited", "source": "gas"}, "geometry": {"type": "Point", "coordinates": [-3.4171234, 51.697239]}}, {"type": "Feature", "properties": {"name": "Grain CHP", "operator": "Unknown Operator", "source": "gas"}, "geometry": {"type": "Point", "coordinates": [0.7072102, 51.4432962]}}, {"type": "Feature", "properties": {"name": "Rainham Landfill Scheme", "operator": "Cleanaway / EDL", "source": "gas"}, "geometry": {"type": "Point", "coordinates": [0.1947284, 51.4913875]}}, {"type": "Feature", "properties": {"name": "Aveley", "operator": "Waste Recycling Group", "source": "gas"}, "geometry": {"type": "Point", "coordinates": [0.233508, 51.5038517]}}, {"type": "Feature", "properties": {"name": "Aveley Landfill Scheme", "operator": "Aveley Methane Ltd", "source": "gas"}, "geometry": {"type": "Point", "coordinates": [0.2327222, 51.5042395]}}, {"type": "Feature", "properties": {"name": "Pitsea Landfill Scheme", "operator": "Veolia", "source": "gas"}, "geometry": {"type": "Point", "coordinates": [0.5091355, 51.5398977]}}, {"type": "Feature", "properties": {"name": "Stangate Landfill Site", "operator": "ARC Ltd", "source": "gas"}, "geometry": {"type": "Point", "coordinates": [0.2989617, 51.2839136]}}, {"type": "Feature", "properties": {"name": "Offham Landfill Site", "operator": "Unknown Operator", "source": "gas"}, "geometry": {"type": "Point", "coordinates": [0.3603816, 51.2924751]}}, {"type": "Feature", "properties": {"name": "Lidsey Landfill", "operator": "Unknown Operator", "source": "gas"}, "geometry": {"type": "Point", "coordinates": [-0.6774978, 50.8235774]}}, {"type": "Feature", "properties": {"name": "Albury Landfill", "operator": "SITA UK", "source": "gas"}, "geometry": {"type": "Point", "coordinates": [-0.4894667, 51.2262646]}}, {"type": "Feature", "properties": {"name": "Fairoak Landfill", "operator": "Renewable Power Generation Ltd", "source": "gas"}, "geometry": {"type": "Point", "coordinates": [-1.2808795, 50.9632162]}}, {"type": "Feature", "properties": {"name": "Whiteparish Landfill Gas Plant", "operator": "Biffa", "source": "gas"}, "geometry": {"type": "Point", "coordinates": [-1.6918542, 51.0180464]}}, {"type": "Feature", "properties": {"name": "Westbury Landfill Scheme", "operator": "Unknown Operator", "source": "gas"}, "geometry": {"type": "Point", "coordinates": [-2.1690307, 51.2726997]}}, {"type": "Feature", "properties": {"name": "Ashford Peaking Plant", "operator": "Unknown Operator", "source": "gas"}, "geometry": {"type": "Point", "coordinates": [0.8904959, 51.1286936]}}, {"type": "Feature", "properties": {"name": "Peterborough Power Station", "operator": "Unknown Operator", "source": "gas"}, "geometry": {"type": "Point", "coordinates": [-0.2031341, 52.5765883]}}, {"type": "Feature", "properties": {"name": "Cefn Mawr Emergency Standby Generation Facility", "operator": "Unknown Operator", "source": "gas"}, "geometry": {"type": "Point", "coordinates": [-3.0570276, 52.9864223]}}, {"type": "Feature", "properties": {"name": "Hinksford Emergency Standby Generation Facility", "operator": "Unknown Operator", "source": "gas"}, "geometry": {"type": "Point", "coordinates": [-2.1929664, 52.5061227]}}, {"type": "Feature", "properties": {"name": "Trafalgar Park Gas Peaking Plant", "operator": "Unknown Operator", "source": "gas"}, "geometry": {"type": "Point", "coordinates": [-1.4747372, 52.8917208]}}, {"type": "Feature", "properties": {"name": "Damhead Creek Power Station", "operator": "ScottishPower", "source": "gas"}, "geometry": {"type": "Point", "coordinates": [0.600795, 51.4253996]}}, {"type": "Feature", "properties": {"name": "Unknown Gas Plant", "operator": "Unknown Operator", "source": "gas"}, "geometry": {"type": "Point", "coordinates": [-3.5194284, 54.618694]}}, {"type": "Feature", "properties": {"name": "Bristol Road", "operator": "Unknown Operator", "source": "gas"}, "geometry": {"type": "Point", "coordinates": [-2.2628744, 51.841511]}}, {"type": "Feature", "properties": {"name": "Burghfield Generation Plant", "operator": "SSE Thermal", "source": "gas"}, "geometry": {"type": "Point", "coordinates": [-1.0038459, 51.429625]}}, {"type": "Feature", "properties": {"name": "Crumlin STOR", "operator": "Plutus Powergen", "source": "gas"}, "geometry": {"type": "Point", "coordinates": [-3.1590809, 51.6741649]}}, {"type": "Feature", "properties": {"name": "Gateshead District Energy Scheme", "operator": "Gateshead Energy Company", "source": "gas"}, "geometry": {"type": "Point", "coordinates": [-1.5959073, 54.9648471]}}, {"type": "Feature", "properties": {"name": "Unknown Gas Plant", "operator": "Unknown Operator", "source": "gas"}, "geometry": {"type": "Point", "coordinates": [-4.1133727, 50.3681766]}}, {"type": "Feature", "properties": {"name": "Sullom Voe Power Station", "operator": "Unknown Operator", "source": "gas"}, "geometry": {"type": "Point", "coordinates": [-1.2718083, 60.4573031]}}, {"type": "Feature", "properties": {"name": "Banbury Power Station", "operator": "Welsh Power", "source": "gas"}, "geometry": {"type": "Point", "coordinates": [-1.3299185, 52.0717723]}}, {"type": "Feature", "properties": {"name": "Carrington STOR", "operator": "Unknown Operator", "source": "gas"}, "geometry": {"type": "Point", "coordinates": [-2.4175313, 53.4284659]}}, {"type": "Feature", "properties": {"name": "Thornhill Gas Power Station", "operator": "Unknown Operator", "source": "gas"}, "geometry": {"type": "Point", "coordinates": [-1.6548202, 53.6770648]}}, {"type": "Feature", "properties": {"name": "Squabb Wood Power Plant", "operator": "Veolia UK Ltd.", "source": "gas"}, "geometry": {"type": "Point", "coordinates": [-1.5345305, 50.9918175]}}, {"type": "Feature", "properties": {"name": "Traston Road STOR, Newport", "operator": "UK Power Reserve", "source": "gas"}, "geometry": {"type": "Point", "coordinates": [-2.9668889, 51.5662608]}}, {"type": "Feature", "properties": {"name": "Traston Road", "operator": "UK Power Reserve", "source": "gas"}, "geometry": {"type": "Point", "coordinates": [-2.9677089, 51.5662255]}}, {"type": "Feature", "properties": {"name": "Coryton Power Station", "operator": "Unknown Operator", "source": "gas"}, "geometry": {"type": "Point", "coordinates": [0.5069917, 51.5124109]}}, {"type": "Feature", "properties": {"name": "Brecon Power STOR", "operator": "Unknown Operator", "source": "gas"}, "geometry": {"type": "Point", "coordinates": [-3.2250405, 51.8055619]}}, {"type": "Feature", "properties": {"name": "Gowerton STOR", "operator": "Unknown Operator", "source": "gas"}, "geometry": {"type": "Point", "coordinates": [-4.0155649, 51.6488562]}}, {"type": "Feature", "properties": {"name": "Kiln Power", "operator": "Kiln Power Limited", "source": "gas"}, "geometry": {"type": "Point", "coordinates": [-1.3919518, 52.5291592]}}, {"type": "Feature", "properties": {"name": "Unknown Gas Plant", "operator": "Alkane Energy UK Limited", "source": "gas"}, "geometry": {"type": "Point", "coordinates": [-1.2019495, 53.2758655]}}, {"type": "Feature", "properties": {"name": "Manners Avenue 2", "operator": "Mercia Power Response", "source": "gas"}, "geometry": {"type": "Point", "coordinates": [-1.324244, 52.9756996]}}, {"type": "Feature", "properties": {"name": "Spondon Peaking", "operator": "UK Utility Reserve Limited", "source": "gas"}, "geometry": {"type": "Point", "coordinates": [-1.4008165, 52.9057912]}}, {"type": "Feature", "properties": {"name": "Sandy Lane Generation", "operator": "Mercia Power Response", "source": "gas"}, "geometry": {"type": "Point", "coordinates": [-1.1381995, 53.3148469]}}, {"type": "Feature", "properties": {"name": "Huthwaite STOR Twinyards", "operator": "Unknown Operator", "source": "gas"}, "geometry": {"type": "Point", "coordinates": [-1.3209276, 53.1230133]}}, {"type": "Feature", "properties": {"name": "Chatterley Power Station", "operator": "Conrad", "source": "gas"}, "geometry": {"type": "Point", "coordinates": [-2.1774951, 53.0767364]}}, {"type": "Feature", "properties": {"name": "Asher Lane STOR Site", "operator": "Mercia Power Response", "source": "gas"}, "geometry": {"type": "Point", "coordinates": [-1.4133216, 53.062006]}}, {"type": "Feature", "properties": {"name": "Asher Lane 2 Generation Facility", "operator": "Mercia Power Response", "source": "gas"}, "geometry": {"type": "Point", "coordinates": [-1.4139023, 53.0618146]}}, {"type": "Feature", "properties": {"name": "Private Road No. 5", "operator": "Mercia Power Response", "source": "gas"}, "geometry": {"type": "Point", "coordinates": [-1.0708887, 52.9570712]}}, {"type": "Feature", "properties": {"name": "Unknown Gas Plant", "operator": "Mercia Power Response", "source": "gas"}, "geometry": {"type": "Point", "coordinates": [-1.0688451, 52.9562327]}}, {"type": "Feature", "properties": {"name": "Lyon Road", "operator": "UK Utility Reserve Limited", "source": "gas"}, "geometry": {"type": "Point", "coordinates": [-0.7380956, 52.0046654]}}, {"type": "Feature", "properties": {"name": "Cuckoo Road", "operator": "Mercia Power Response", "source": "gas"}, "geometry": {"type": "Point", "coordinates": [-1.8603385, 52.5048872]}}, {"type": "Feature", "properties": {"name": "Toton STOR Site Nottingham Rd", "operator": "Mercia Power Response", "source": "gas"}, "geometry": {"type": "Point", "coordinates": [-1.2411334, 52.9042049]}}, {"type": "Feature", "properties": {"name": "Albion Close STOR", "operator": "Mercia Power Response", "source": "gas"}, "geometry": {"type": "Point", "coordinates": [-1.1171421, 53.3095674]}}, {"type": "Feature", "properties": {"name": "Wolverhampton Power", "operator": "Wolverhampton Power Ltd", "source": "gas"}, "geometry": {"type": "Point", "coordinates": [-2.1084357, 52.5821483]}}, {"type": "Feature", "properties": {"name": "ISIS House STOR", "operator": "Redditch Peaking Power Limited", "source": "gas"}, "geometry": {"type": "Point", "coordinates": [-1.9114199, 52.2903578]}}, {"type": "Feature", "properties": {"name": "Hermitage Lane", "operator": "UK Power Reserve", "source": "gas"}, "geometry": {"type": "Point", "coordinates": [-1.2191346, 53.1326469]}}, {"type": "Feature", "properties": {"name": "Ogmore Power Station", "operator": "Ogmore Power Limited", "source": "gas"}, "geometry": {"type": "Point", "coordinates": [-3.2322116, 51.8004346]}}, {"type": "Feature", "properties": {"name": "Unknown Gas Plant", "operator": "Unknown Operator", "source": "gas"}, "geometry": {"type": "Point", "coordinates": [-1.3232424, 52.9759718]}}, {"type": "Feature", "properties": {"name": "Clyne Power", "operator": "Clyne Power Limited", "source": "gas"}, "geometry": {"type": "Point", "coordinates": [-3.2228964, 51.786693]}}, {"type": "Feature", "properties": {"name": "Nevern Power", "operator": "Nevern Power Limited", "source": "gas"}, "geometry": {"type": "Point", "coordinates": [-3.2230061, 51.787273]}}, {"type": "Feature", "properties": {"name": "Llethri Road Dafen", "operator": "Dafen Reserve Power Ltd", "source": "gas"}, "geometry": {"type": "Point", "coordinates": [-4.130683, 51.6994229]}}, {"type": "Feature", "properties": {"name": "Bradon Farm Gen (Cantelo Nurseries)", "operator": "UK Power Reserve Limited", "source": "gas"}, "geometry": {"type": "Point", "coordinates": [-2.9098835, 50.9743696]}}, {"type": "Feature", "properties": {"name": "Sandylands Nurseries CHP", "operator": "Unknown Operator", "source": "gas"}, "geometry": {"type": "Point", "coordinates": [-1.9121759, 52.1066882]}}, {"type": "Feature", "properties": {"name": "Tonypandy STOR", "operator": "Unknown Operator", "source": "gas"}, "geometry": {"type": "Point", "coordinates": [-3.4550751, 51.6286604]}}, {"type": "Feature", "properties": {"name": "Unknown Gas Plant", "operator": "Unknown Operator", "source": "gas"}, "geometry": {"type": "Point", "coordinates": [-1.1886328, 52.9237665]}}, {"type": "Feature", "properties": {"name": "Derby Gas Power Station", "operator": "Unknown Operator", "source": "gas"}, "geometry": {"type": "Point", "coordinates": [-1.4640288, 52.8838544]}}, {"type": "Feature", "properties": {"name": "Knypersley Generation", "operator": "Knypersley Power Limited", "source": "gas"}, "geometry": {"type": "Point", "coordinates": [-2.1809934, 53.098527]}}, {"type": "Feature", "properties": {"name": "Unknown Gas Plant", "operator": "ThamesWey Central Milton Keynes Ltd", "source": "gas"}, "geometry": {"type": "Point", "coordinates": [-0.7616152, 52.0385713]}}, {"type": "Feature", "properties": {"name": "Unknown Gas Plant", "operator": "Viridor Waste Management Ltd", "source": "gas"}, "geometry": {"type": "Point", "coordinates": [-3.6106423, 50.5731758]}}, {"type": "Feature", "properties": {"name": "Unknown Gas Plant", "operator": "Unknown Operator", "source": "gas"}, "geometry": {"type": "Point", "coordinates": [-3.6999288, 51.5066921]}}, {"type": "Feature", "properties": {"name": "Bristol Energy", "operator": "Whitetower Energy Limited", "source": "gas"}, "geometry": {"type": "Point", "coordinates": [-2.564821, 51.5264781]}}, {"type": "Feature", "properties": {"name": "Michelin CHP", "operator": "E.ON", "source": "gas"}, "geometry": {"type": "Point", "coordinates": [-2.1959254, 52.9863835]}}, {"type": "Feature", "properties": {"name": "Grangemouth CHP Power Plant", "operator": "Unknown Operator", "source": "gas"}, "geometry": {"type": "Point", "coordinates": [-3.6955534, 56.0110763]}}, {"type": "Feature", "properties": {"name": "Didcot OCGT", "operator": "Unknown Operator", "source": "gas"}, "geometry": {"type": "Point", "coordinates": [-1.2635211, 51.624316]}}, {"type": "Feature", "properties": {"name": "Didcot B Power Station", "operator": "RWE", "source": "gas"}, "geometry": {"type": "Point", "coordinates": [-1.2695753, 51.6257502]}}, {"type": "Feature", "properties": {"name": "Redfield Road Gas Generation Plant", "operator": "Unknown Operator", "source": "gas"}, "geometry": {"type": "Point", "coordinates": [-1.1789743, 52.934602]}}, {"type": "Feature", "properties": {"name": "Dowlais STOR East", "operator": "Unknown Operator", "source": "gas"}, "geometry": {"type": "Point", "coordinates": [-3.3370919, 51.7712616]}}, {"type": "Feature", "properties": {"name": "Nottingham Road STOR", "operator": "Unknown Operator", "source": "gas"}, "geometry": {"type": "Point", "coordinates": [-1.2677042, 52.9009482]}}, {"type": "Feature", "properties": {"name": "Unknown Gas Plant", "operator": "Unknown Operator", "source": "gas"}, "geometry": {"type": "Point", "coordinates": [-1.6904206, 50.9604095]}}, {"type": "Feature", "properties": {"name": "Rownhams Generation Station", "operator": "Keekle Power", "source": "gas"}, "geometry": {"type": "Point", "coordinates": [-1.4736122, 50.9497864]}}, {"type": "Feature", "properties": {"name": "Sudmeadow Road STOR", "operator": "Unknown Operator", "source": "gas"}, "geometry": {"type": "Point", "coordinates": [-2.2638364, 51.8650873]}}, {"type": "Feature", "properties": {"name": "Kirkby-in-Ashfield Gas Peaking Plant", "operator": "Infinis", "source": "gas"}, "geometry": {"type": "Point", "coordinates": [-1.2697561, 53.0908012]}}, {"type": "Feature", "properties": {"name": "Severn Power Station", "operator": "Calon Energy", "source": "gas"}, "geometry": {"type": "Point", "coordinates": [-2.9763266, 51.5473437]}}, {"type": "Feature", "properties": {"name": "Biomass Generator", "operator": "National Trust", "source": "gas"}, "geometry": {"type": "Point", "coordinates": [-1.1519928, 51.043897]}}, {"type": "Feature", "properties": {"name": "Blackburn Mill Power Station", "operator": "Unknown Operator", "source": "gas"}, "geometry": {"type": "Point", "coordinates": [-2.5374363, 53.7179995]}}, {"type": "Feature", "properties": {"name": "Hythe CHP", "operator": "RWE COGEN UK (HYTHE) LIMITED", "source": "gas"}, "geometry": {"type": "Point", "coordinates": [-1.3815853, 50.8503369]}}, {"type": "Feature", "properties": {"name": "Unknown Gas Plant", "operator": "Unknown Operator", "source": "gas"}, "geometry": {"type": "Point", "coordinates": [-3.458851, 50.751527]}}, {"type": "Feature", "properties": {"name": "Unknown Gas Plant", "operator": "Unknown Operator", "source": "gas"}, "geometry": {"type": "Point", "coordinates": [-1.3501251, 50.9377363]}}, {"type": "Feature", "properties": {"name": "Unknown Gas Plant", "operator": "infinis", "source": "gas"}, "geometry": {"type": "Point", "coordinates": [-1.1769132, 53.2082116]}}, {"type": "Feature", "properties": {"name": "Port Talbot STOR", "operator": "UK Power Reserve Ltd", "source": "gas"}, "geometry": {"type": "Point", "coordinates": [-3.7970621, 51.5925896]}}, {"type": "Feature", "properties": {"name": "Bispham Flexible Generation", "operator": "Unknown Operator", "source": "gas"}, "geometry": {"type": "Point", "coordinates": [-3.0310369, 53.8487892]}}, {"type": "Feature", "properties": {"name": "Unknown Gas Plant", "operator": "Unknown Operator", "source": "gas"}, "geometry": {"type": "Point", "coordinates": [-1.2685897, 54.5881057]}}, {"type": "Feature", "properties": {"name": "Hartmoor Generation", "operator": "Forsa Energy", "source": "gas"}, "geometry": {"type": "Point", "coordinates": [-1.2910315, 54.702682]}}, {"type": "Feature", "properties": {"name": "Middlewich Power Generation Plant", "operator": "Conrad Energy", "source": "gas"}, "geometry": {"type": "Point", "coordinates": [-2.4246298, 53.1872897]}}, {"type": "Feature", "properties": {"name": "Saltholme South Power Station", "operator": "Statera Energy Operations", "source": "gas"}, "geometry": {"type": "Point", "coordinates": [-1.2437121, 54.6072868]}}, {"type": "Feature", "properties": {"name": "Saltholme North Power Station", "operator": "Statera Energy Operations", "source": "gas"}, "geometry": {"type": "Point", "coordinates": [-1.2438947, 54.6078157]}}, {"type": "Feature", "properties": {"name": "Creyke Beck Power", "operator": "Statera Energy", "source": "gas"}, "geometry": {"type": "Point", "coordinates": [-0.4180141, 53.7975485]}}, {"type": "Feature", "properties": {"name": "Lester Way Flexible Generation Facility", "operator": "Conrad Energy", "source": "gas"}, "geometry": {"type": "Point", "coordinates": [-1.140264, 51.5962368]}}, {"type": "Feature", "properties": {"name": "The Drove Power Plant", "operator": "Unknown Operator", "source": "gas"}, "geometry": {"type": "Point", "coordinates": [-2.9978258, 51.1360332]}}, {"type": "Feature", "properties": {"name": "Red Scar Peaking Plant", "operator": "Unknown Operator", "source": "gas"}, "geometry": {"type": "Point", "coordinates": [-2.6430881, 53.782238]}}, {"type": "Feature", "properties": {"name": "Chickerell Power Station", "operator": "Unknown Operator", "source": "gas"}, "geometry": {"type": "Point", "coordinates": [-2.4894462, 50.6233884]}}, {"type": "Feature", "properties": {"name": "Keadby Power Station", "operator": "SSE Thermal", "source": "gas"}, "geometry": {"type": "Point", "coordinates": [-0.7496749, 53.5947281]}}, {"type": "Feature", "properties": {"name": "Moorfield Drive Power Station", "operator": "Unknown Operator", "source": "gas"}, "geometry": {"type": "Point", "coordinates": [-2.3643642, 53.7757146]}}, {"type": "Feature", "properties": {"name": "Rake Lane Power Station", "operator": "Unknown Operator", "source": "gas"}, "geometry": {"type": "Point", "coordinates": [-2.3150967, 53.5262804]}}, {"type": "Feature", "properties": {"name": "Goose House Lane Power Station", "operator": "Unknown Operator", "source": "gas"}, "geometry": {"type": "Point", "coordinates": [-2.4682452, 53.7073254]}}, {"type": "Feature", "properties": {"name": "Beaufort Road Power Station", "operator": "Sembcorp", "source": "gas"}, "geometry": {"type": "Point", "coordinates": [-3.047173, 53.4028751]}}, {"type": "Feature", "properties": {"name": "Unknown Gas Plant", "operator": "Unknown Operator", "source": "gas"}, "geometry": {"type": "Point", "coordinates": [0.3878373, 51.6381511]}}, {"type": "Feature", "properties": {"name": "Unknown Gas Plant", "operator": "Unknown Operator", "source": "gas"}, "geometry": {"type": "Point", "coordinates": [0.7565588, 51.3640815]}}, {"type": "Feature", "properties": {"name": "Unknown Gas Plant", "operator": "Unknown Operator", "source": "gas"}, "geometry": {"type": "Point", "coordinates": [0.7269447, 52.2548893]}}, {"type": "Feature", "properties": {"name": "Peterborough STOR", "operator": "Centrica", "source": "gas"}, "geometry": {"type": "Point", "coordinates": [-0.2031948, 52.5757416]}}, {"type": "Feature", "properties": {"name": "Brigg STOR", "operator": "Centrica", "source": "gas"}, "geometry": {"type": "Point", "coordinates": [-0.5080306, 53.5411014]}}, {"type": "Feature", "properties": {"name": "Beaufort Power Station", "operator": "Velox Power Limited", "source": "gas"}, "geometry": {"type": "Point", "coordinates": [-3.24486, 51.7981042]}}, {"type": "Feature", "properties": {"name": "Boiler House", "operator": "Unknown Operator", "source": "gas"}, "geometry": {"type": "Point", "coordinates": [-0.1222397, 51.4482389]}}, {"type": "Feature", "properties": {"name": "Unknown Gas Plant", "operator": "Unknown Operator", "source": "gas"}, "geometry": {"type": "Point", "coordinates": [-0.5126846, 51.9369098]}}, {"type": "Feature", "properties": {"name": "Sandwell Gas Reserve Power Plant (g2 Energy)", "operator": "GB Energy", "source": "gas"}, "geometry": {"type": "Point", "coordinates": [-2.0204061, 52.5444392]}}, {"type": "Feature", "properties": {"name": "Aberdare Power Station", "operator": "Sembcorp Energy UK Limited", "source": "gas"}, "geometry": {"type": "Point", "coordinates": [-3.4161043, 51.6975177]}}, {"type": "Feature", "properties": {"name": "Croydon Power plant", "operator": "Whitetower Energy", "source": "gas"}, "geometry": {"type": "Point", "coordinates": [-0.116138, 51.376425]}}, {"type": "Feature", "properties": {"name": "Harelaw Peaking Plant", "operator": "Forsa Energy", "source": "gas"}, "geometry": {"type": "Point", "coordinates": [-4.7104655, 55.9171612]}}, {"type": "Feature", "properties": {"name": "Chadderton Generation", "operator": "Unknown Operator", "source": "gas"}, "geometry": {"type": "Point", "coordinates": [-2.1648645, 53.5286694]}}, {"type": "Feature", "properties": {"name": "Oldbury Standby Power Generation Plant", "operator": "Conrad Energy", "source": "gas"}, "geometry": {"type": "Point", "coordinates": [-2.0204363, 52.4920879]}}, {"type": "Feature", "properties": {"name": "Energy Centre", "operator": "Unknown Operator", "source": "gas"}, "geometry": {"type": "Point", "coordinates": [-4.2174061, 55.8376739]}}, {"type": "Feature", "properties": {"name": "Unknown Gas Plant", "operator": "Unknown Operator", "source": "gas"}, "geometry": {"type": "Point", "coordinates": [-1.3773956, 50.8338199]}}, {"type": "Feature", "properties": {"name": "Greendykes Communal Heating", "operator": "City of Edinburgh Council", "source": "gas"}, "geometry": {"type": "Point", "coordinates": [-3.122897, 55.9282012]}}, {"type": "Feature", "properties": {"name": "Stock Lane Power Station", "operator": "Sembcorp", "source": "gas"}, "geometry": {"type": "Point", "coordinates": [-2.142296, 53.542553]}}, {"type": "Feature", "properties": {"name": "Erskine Gas Generation", "operator": "Erskine Gas Generation Ltd", "source": "gas"}, "geometry": {"type": "Point", "coordinates": [-4.4841317, 55.9022944]}}, {"type": "Feature", "properties": {"name": "Exeter Gas Power Station", "operator": "Rockland Capital", "source": "gas"}, "geometry": {"type": "Point", "coordinates": [-3.5243757, 50.7067565]}}]}